dtn_data/3_1_1/0to7.csv

"Access","Start Time (UTCG)","Stop Time (UTCG)","Duration (sec)"
1,3 Jan 2030 22:00:13.756,4 Jan 2030 00:58:46.355,10712.599
2,4 Jan 2030 10:38:56.624,4 Jan 2030 14:26:14.468,13637.843
3,4 Jan 2030 23:28:41.902,5 Jan 2030 03:43:19.345,15277.443
4,5 Jan 2030 12:23:33.641,5 Jan 2030 16:55:34.900,16321.259
5,6 Jan 2030 01:21:19.680,6 Jan 2030 06:05:04.095,17024.415
6,6 Jan 2030 14:20:57.571,6 Jan 2030 19:12:44.987,17507.416
7,7 Jan 2030 03:21:54.035,7 Jan 2030 08:19:08.464,17834.429
8,7 Jan 2030 16:23:50.238,7 Jan 2030 21:24:31.854,18041.616
9,8 Jan 2030 05:26:35.554,8 Jan 2030 10:29:04.669,18149.115
10,8 Jan 2030 18:30:04.617,8 Jan 2030 23:32:51.228,18166.611
11,9 Jan 2030 07:34:16.074,9 Jan 2030 12:35:51.718,18095.643
12,9 Jan 2030 20:39:12.294,10 Jan 2030 01:38:02.282,17929.988
13,10 Jan 2030 09:44:59.948,10 Jan 2030 14:39:14.121,17654.173
14,10 Jan 2030 22:51:51.764,11 Jan 2030 03:39:11.316,17239.552
15,11 Jan 2030 12:00:10.421,11 Jan 2030 16:37:26.019,16635.597
16,12 Jan 2030 01:10:37.427,12 Jan 2030 05:33:07.833,15750.406
17,12 Jan 2030 14:24:35.956,12 Jan 2030 18:24:37.024,14401.067
18,13 Jan 2030 03:45:26.001,13 Jan 2030 07:07:59.370,12153.369
19,13 Jan 2030 17:25:47.373,13 Jan 2030 19:29:13.554,7406.181
20,17 Jan 2030 06:39:54.693,17 Jan 2030 08:42:41.650,7366.958
21,17 Jan 2030 19:00:56.156,17 Jan 2030 22:23:14.717,12138.561
22,18 Jan 2030 07:44:15.084,18 Jan 2030 11:44:07.813,14392.729
23,18 Jan 2030 20:35:42.716,19 Jan 2030 00:58:07.806,15745.090
24,19 Jan 2030 09:31:23.692,19 Jan 2030 14:08:35.708,16632.016
25,19 Jan 2030 22:29:37.908,20 Jan 2030 03:16:55.006,17237.098
26,20 Jan 2030 11:29:34.820,20 Jan 2030 16:23:47.341,17652.521
27,21 Jan 2030 00:30:46.509,21 Jan 2030 05:29:35.462,17928.953
28,21 Jan 2030 13:32:57.000,21 Jan 2030 18:34:32.131,18095.131
29,22 Jan 2030 02:35:57.489,22 Jan 2030 07:38:44.066,18166.577
30,22 Jan 2030 15:39:44.095,22 Jan 2030 20:42:13.651,18149.556
31,23 Jan 2030 04:44:16.997,23 Jan 2030 09:44:59.566,18042.569
32,23 Jan 2030 17:49:40.507,23 Jan 2030 22:46:56.488,17835.981
33,24 Jan 2030 06:56:04.119,24 Jan 2030 11:47:53.835,17509.716
34,24 Jan 2030 20:03:45.140,25 Jan 2030 00:47:32.873,17027.733
35,25 Jan 2030 09:13:14.418,25 Jan 2030 13:45:20.475,16326.057
36,25 Jan 2030 22:25:29.867,26 Jan 2030 02:40:14.511,15284.643
37,26 Jan 2030 11:42:34.063,26 Jan 2030 15:30:03.549,13649.486
38,27 Jan 2030 01:09:59.090,27 Jan 2030 04:08:54.182,10735.093

