dtn_data/3_1_1/0to8.csv

"Access","Start Time (UTCG)","Stop Time (UTCG)","Duration (sec)"
1,3 Jan 2030 17:52:48.189,3 Jan 2030 20:24:25.424,9097.235
2,4 Jan 2030 06:24:16.896,4 Jan 2030 09:58:44.402,12867.505
3,4 Jan 2030 19:11:22.593,4 Jan 2030 23:18:19.335,14816.741
4,5 Jan 2030 08:04:52.584,5 Jan 2030 12:31:52.330,16019.745
5,5 Jan 2030 21:01:49.642,6 Jan 2030 01:42:08.505,16818.864
6,6 Jan 2030 10:00:54.954,6 Jan 2030 14:50:21.122,17366.169
7,6 Jan 2030 23:01:27.851,7 Jan 2030 03:57:07.973,17740.122
8,7 Jan 2030 12:03:05.648,7 Jan 2030 17:02:50.023,17984.376
9,8 Jan 2030 01:05:35.413,8 Jan 2030 06:07:38.993,18123.581
10,8 Jan 2030 14:08:50.228,8 Jan 2030 19:11:40.756,18170.528
11,9 Jan 2030 03:12:47.478,9 Jan 2030 08:14:56.825,18129.347
12,9 Jan 2030 16:17:28.270,9 Jan 2030 21:17:24.734,17996.464
13,10 Jan 2030 05:22:57.721,10 Jan 2030 10:18:57.500,17759.779
14,10 Jan 2030 18:29:26.234,10 Jan 2030 23:19:21.941,17395.707
15,11 Jan 2030 07:37:12.538,11 Jan 2030 12:18:14.970,16862.432
16,11 Jan 2030 20:46:50.318,12 Jan 2030 01:14:55.525,16085.206
17,12 Jan 2030 09:59:24.610,12 Jan 2030 14:08:05.257,14920.647
18,12 Jan 2030 23:17:20.368,13 Jan 2030 02:54:52.704,13052.337
19,13 Jan 2030 12:48:00.494,13 Jan 2030 15:26:55.092,9534.599
20,17 Jan 2030 02:53:47.917,17 Jan 2030 03:49:23.717,3335.799
21,17 Jan 2030 14:49:55.889,17 Jan 2030 17:53:19.332,11003.443
22,18 Jan 2030 03:28:35.122,18 Jan 2030 07:18:12.786,13777.664
23,18 Jan 2030 16:17:57.975,18 Jan 2030 20:33:57.575,15359.600
24,19 Jan 2030 05:12:29.499,19 Jan 2030 09:45:23.600,16374.100
25,19 Jan 2030 18:09:59.882,19 Jan 2030 22:54:19.773,17059.891
26,20 Jan 2030 07:09:26.475,20 Jan 2030 12:01:37.894,17531.419
27,20 Jan 2030 20:10:15.472,21 Jan 2030 01:07:45.619,17850.147
28,21 Jan 2030 09:12:07.628,21 Jan 2030 14:12:58.448,18050.820
29,21 Jan 2030 22:14:52.098,22 Jan 2030 03:17:24.835,18152.737
30,22 Jan 2030 11:18:23.505,22 Jan 2030 16:21:08.500,18164.995
31,23 Jan 2030 00:22:40.712,23 Jan 2030 05:24:09.351,18088.639
32,23 Jan 2030 13:27:46.586,23 Jan 2030 18:26:23.481,17916.894
33,24 Jan 2030 02:33:48.705,24 Jan 2030 07:27:42.280,17633.575
34,24 Jan 2030 15:41:01.341,24 Jan 2030 20:27:50.204,17208.864
35,25 Jan 2030 04:49:49.853,25 Jan 2030 09:26:19.969,16590.116
36,25 Jan 2030 18:01:00.757,25 Jan 2030 22:22:21.684,15680.927
37,26 Jan 2030 07:16:07.742,26 Jan 2030 11:14:14.833,14287.091
38,26 Jan 2030 20:38:59.149,26 Jan 2030 23:57:55.454,11936.305
39,27 Jan 2030 10:24:56.249,27 Jan 2030 12:17:20.092,6743.844

