dtn_data/3_1_1/1to6.csv

"Access","Start Time (UTCG)","Stop Time (UTCG)","Duration (sec)"
1,1 Jan 2030 11:20:41.678,1 Jan 2030 16:23:00.728,18139.050
2,2 Jan 2030 00:23:29.094,2 Jan 2030 05:25:45.537,18136.443
3,2 Jan 2030 13:26:13.240,2 Jan 2030 18:28:27.766,18134.527
4,3 Jan 2030 02:28:55.057,3 Jan 2030 07:31:08.435,18133.378
5,3 Jan 2030 15:31:35.536,3 Jan 2030 20:33:48.580,18133.044
6,4 Jan 2030 04:34:15.701,4 Jan 2030 09:36:29.240,18133.539
7,4 Jan 2030 17:36:56.593,4 Jan 2030 22:39:11.436,18134.843
8,5 Jan 2030 06:39:39.251,5 Jan 2030 11:41:56.157,18136.906
9,5 Jan 2030 19:42:24.695,6 Jan 2030 00:44:44.338,18139.644
10,6 Jan 2030 08:45:13.906,6 Jan 2030 13:47:36.857,18142.951
11,6 Jan 2030 21:48:07.810,7 Jan 2030 02:50:34.511,18146.701
12,7 Jan 2030 10:51:07.260,7 Jan 2030 15:53:38.015,18150.755
13,7 Jan 2030 23:54:13.020,8 Jan 2030 04:56:47.988,18154.968
14,8 Jan 2030 12:57:25.753,8 Jan 2030 18:00:04.953,18159.200
15,9 Jan 2030 02:00:46.007,9 Jan 2030 07:03:29.325,18163.318
16,9 Jan 2030 15:04:14.208,9 Jan 2030 20:07:01.411,18167.203
17,10 Jan 2030 04:07:50.651,10 Jan 2030 09:10:41.411,18170.760
18,10 Jan 2030 17:11:35.495,10 Jan 2030 22:14:29.409,18173.914
19,11 Jan 2030 06:15:28.761,11 Jan 2030 11:18:25.379,18176.619
20,11 Jan 2030 19:19:30.331,12 Jan 2030 00:22:29.184,18178.853
21,12 Jan 2030 08:23:39.950,12 Jan 2030 13:26:40.571,18180.621
22,12 Jan 2030 21:27:57.230,13 Jan 2030 02:30:59.182,18181.951
23,13 Jan 2030 10:32:21.656,13 Jan 2030 15:35:24.546,18182.890
24,13 Jan 2030 23:36:52.595,14 Jan 2030 04:39:56.094,18183.499
25,14 Jan 2030 12:41:29.306,14 Jan 2030 17:44:33.153,18183.847
26,15 Jan 2030 01:46:10.957,15 Jan 2030 06:49:14.963,18184.006
27,15 Jan 2030 14:50:56.632,15 Jan 2030 19:54:00.680,18184.048
28,16 Jan 2030 03:55:45.359,16 Jan 2030 08:58:49.389,18184.030
29,16 Jan 2030 17:00:36.117,16 Jan 2030 22:03:40.117,18184.001
30,17 Jan 2030 06:05:27.861,17 Jan 2030 11:08:31.850,18183.989
31,17 Jan 2030 19:10:19.541,18 Jan 2030 00:13:23.544,18184.003
32,18 Jan 2030 08:15:10.117,18 Jan 2030 13:18:14.150,18184.033
33,18 Jan 2030 21:19:58.581,19 Jan 2030 02:23:02.629,18184.048
34,19 Jan 2030 10:24:43.968,19 Jan 2030 15:27:47.970,18184.002
35,19 Jan 2030 23:29:25.378,20 Jan 2030 04:32:29.210,18183.832
36,20 Jan 2030 12:34:01.981,20 Jan 2030 17:37:05.451,18183.470
37,21 Jan 2030 01:38:33.031,21 Jan 2030 06:41:35.875,18182.844
38,21 Jan 2030 14:42:57.875,21 Jan 2030 19:45:59.760,18181.885
39,22 Jan 2030 03:47:15.959,22 Jan 2030 08:50:16.491,18180.532
40,22 Jan 2030 16:51:26.829,22 Jan 2030 21:54:25.570,18178.741
41,23 Jan 2030 05:55:30.140,23 Jan 2030 10:58:26.625,18176.485
42,23 Jan 2030 18:59:25.654,24 Jan 2030 00:02:19.415,18173.761
43,24 Jan 2030 08:03:13.242,24 Jan 2030 13:06:03.832,18170.590
44,24 Jan 2030 21:06:52.886,25 Jan 2030 02:09:39.906,18167.020
45,25 Jan 2030 10:10:24.675,25 Jan 2030 15:13:07.800,18163.125
46,25 Jan 2030 23:13:48.809,26 Jan 2030 04:16:27.810,18159.000
47,26 Jan 2030 12:17:05.595,26 Jan 2030 17:19:40.359,18154.763
48,27 Jan 2030 01:20:15.445,27 Jan 2030 06:22:45.991,18150.546
49,27 Jan 2030 14:23:18.872,27 Jan 2030 19:25:45.361,18146.489
50,28 Jan 2030 03:26:16.489,28 Jan 2030 08:28:39.224,18142.735

