dtn_data/3_1_1/1to7.csv

"Access","Start Time (UTCG)","Stop Time (UTCG)","Duration (sec)"
1,1 Jan 2030 06:59:44.992,1 Jan 2030 12:02:05.047,18140.055
2,1 Jan 2030 20:02:33.697,2 Jan 2030 01:04:50.937,18137.240
3,2 Jan 2030 09:05:18.831,2 Jan 2030 14:07:33.914,18135.083
4,2 Jan 2030 22:08:01.316,3 Jan 2030 03:10:14.988,18133.672
5,3 Jan 2030 11:10:42.129,3 Jan 2030 16:12:55.192,18133.063
6,4 Jan 2030 00:13:22.284,4 Jan 2030 05:15:35.566,18133.282
7,4 Jan 2030 13:16:02.817,4 Jan 2030 18:18:17.138,18134.321
8,5 Jan 2030 02:18:44.772,5 Jan 2030 07:21:00.910,18136.138
9,5 Jan 2030 15:21:29.176,5 Jan 2030 20:23:47.838,18138.662
10,6 Jan 2030 04:24:17.025,6 Jan 2030 09:26:38.818,18141.793
11,6 Jan 2030 17:27:09.266,6 Jan 2030 22:29:34.676,18145.410
12,7 Jan 2030 06:30:06.778,7 Jan 2030 11:32:36.156,18149.379
13,7 Jan 2030 19:33:10.356,8 Jan 2030 00:35:43.911,18153.555
14,8 Jan 2030 08:36:20.698,8 Jan 2030 13:38:58.494,18157.796
15,8 Jan 2030 21:39:38.391,9 Jan 2030 02:42:20.357,18161.966
16,9 Jan 2030 10:43:03.904,9 Jan 2030 15:45:49.844,18165.940
17,9 Jan 2030 23:46:37.575,10 Jan 2030 04:49:27.191,18169.616
18,10 Jan 2030 12:50:19.609,10 Jan 2030 17:53:12.520,18172.911
19,11 Jan 2030 01:54:10.074,11 Jan 2030 06:57:05.843,18175.769
20,11 Jan 2030 14:58:08.898,11 Jan 2030 20:01:07.058,18178.161
21,12 Jan 2030 04:02:15.871,12 Jan 2030 09:05:15.953,18180.082
22,12 Jan 2030 17:06:30.648,12 Jan 2030 22:09:32.202,18181.554
23,13 Jan 2030 06:10:52.757,13 Jan 2030 11:13:55.374,18182.617
24,13 Jan 2030 19:15:21.602,14 Jan 2030 00:18:24.930,18183.328
25,14 Jan 2030 08:19:56.478,14 Jan 2030 13:23:00.233,18183.755
26,14 Jan 2030 21:24:36.579,15 Jan 2030 02:27:40.549,18183.970
27,15 Jan 2030 10:29:21.019,15 Jan 2030 15:32:25.062,18184.043
28,15 Jan 2030 23:34:08.840,16 Jan 2030 04:37:12.879,18184.039
29,16 Jan 2030 12:38:59.036,16 Jan 2030 17:42:03.046,18184.010
30,17 Jan 2030 01:43:50.568,17 Jan 2030 06:46:54.558,18183.990
31,17 Jan 2030 14:48:42.386,17 Jan 2030 19:51:46.381,18183.995
32,18 Jan 2030 03:53:33.444,18 Jan 2030 08:56:37.467,18184.023
33,18 Jan 2030 16:58:22.721,18 Jan 2030 22:01:26.769,18184.048
34,19 Jan 2030 06:03:09.238,19 Jan 2030 11:06:13.266,18184.028
35,19 Jan 2030 19:07:52.070,20 Jan 2030 00:10:55.976,18183.906
36,20 Jan 2030 08:12:30.362,20 Jan 2030 13:15:33.978,18183.616
37,20 Jan 2030 21:17:03.340,21 Jan 2030 02:20:06.427,18183.086
38,21 Jan 2030 10:21:30.320,21 Jan 2030 15:24:32.565,18182.245
39,21 Jan 2030 23:25:50.712,22 Jan 2030 04:28:51.742,18181.030
40,22 Jan 2030 12:30:04.030,22 Jan 2030 17:33:03.419,18179.389
41,23 Jan 2030 01:34:09.893,23 Jan 2030 06:37:07.183,18177.290
42,23 Jan 2030 14:38:08.026,23 Jan 2030 19:41:02.746,18174.720
43,24 Jan 2030 03:41:58.263,24 Jan 2030 08:44:49.958,18171.695
44,24 Jan 2030 16:45:40.550,24 Jan 2030 21:48:28.801,18168.251
45,25 Jan 2030 05:49:14.941,25 Jan 2030 10:51:59.395,18164.454
46,25 Jan 2030 18:52:41.598,25 Jan 2030 23:55:21.992,18160.394
47,26 Jan 2030 07:56:00.793,26 Jan 2030 12:58:36.973,18156.180
48,26 Jan 2030 20:59:12.902,27 Jan 2030 02:01:44.844,18151.941
49,27 Jan 2030 10:02:18.407,27 Jan 2030 15:04:46.222,18147.815
50,27 Jan 2030 23:05:17.887,28 Jan 2030 04:07:41.831,18143.944

