dtn_data/3_1_1/2to8.csv

"Access","Start Time (UTCG)","Stop Time (UTCG)","Duration (sec)"
1,1 Jan 2030 04:00:00.000,1 Jan 2030 06:23:04.432,8584.432
2,1 Jan 2030 14:53:59.901,1 Jan 2030 19:34:57.677,16857.776
3,2 Jan 2030 04:12:13.731,2 Jan 2030 08:48:41.597,16587.866
4,2 Jan 2030 17:31:44.740,2 Jan 2030 22:04:24.607,16359.866
5,3 Jan 2030 06:51:51.976,3 Jan 2030 11:22:02.788,16210.813
6,3 Jan 2030 20:11:43.807,4 Jan 2030 00:41:13.709,16169.903
7,4 Jan 2030 09:30:30.033,4 Jan 2030 14:01:15.921,16245.888
8,4 Jan 2030 22:47:34.530,5 Jan 2030 03:21:17.299,16422.769
9,5 Jan 2030 12:02:40.942,5 Jan 2030 16:40:28.430,16667.489
10,6 Jan 2030 01:15:49.880,6 Jan 2030 05:58:13.064,16943.184
11,6 Jan 2030 14:27:12.101,6 Jan 2030 19:14:11.159,17219.058
12,7 Jan 2030 03:37:02.156,7 Jan 2030 08:28:16.094,17473.938
13,7 Jan 2030 16:45:34.466,7 Jan 2030 21:40:29.807,17695.340
14,8 Jan 2030 05:53:01.496,8 Jan 2030 10:50:58.445,17876.949
15,8 Jan 2030 18:59:33.208,8 Jan 2030 23:59:49.379,18016.171
16,9 Jan 2030 08:05:17.106,9 Jan 2030 13:07:09.452,18112.347
17,9 Jan 2030 21:10:18.506,10 Jan 2030 02:13:04.075,18165.569
18,10 Jan 2030 10:14:40.786,10 Jan 2030 15:17:36.813,18176.027
19,10 Jan 2030 23:18:25.600,11 Jan 2030 04:20:49.246,18143.647
20,11 Jan 2030 12:21:32.984,11 Jan 2030 17:22:40.953,18067.969
21,12 Jan 2030 01:24:01.380,12 Jan 2030 06:23:09.610,17948.231
22,12 Jan 2030 14:25:47.553,12 Jan 2030 19:22:11.199,17783.646
23,13 Jan 2030 03:26:46.439,13 Jan 2030 08:19:40.435,17573.996
24,13 Jan 2030 16:26:50.960,13 Jan 2030 21:15:31.562,17320.602
25,14 Jan 2030 05:25:51.863,14 Jan 2030 10:09:39.767,17027.904
26,14 Jan 2030 18:23:37.824,14 Jan 2030 23:02:03.435,16705.611
27,15 Jan 2030 07:19:56.096,15 Jan 2030 11:52:47.325,16371.228
28,15 Jan 2030 20:14:34.323,16 Jan 2030 00:42:06.173,16051.850
29,16 Jan 2030 09:07:23.953,16 Jan 2030 13:30:27.255,15783.302
30,16 Jan 2030 21:58:25.334,17 Jan 2030 02:18:29.630,15604.296
31,17 Jan 2030 10:47:52.812,17 Jan 2030 15:06:58.254,15545.442
32,17 Jan 2030 23:36:16.646,18 Jan 2030 03:56:34.359,15617.713
33,18 Jan 2030 12:24:18.913,18 Jan 2030 16:47:46.618,15807.705
34,19 Jan 2030 01:12:44.377,19 Jan 2030 05:40:47.755,16083.378
35,19 Jan 2030 14:02:11.055,19 Jan 2030 18:35:36.930,16405.875
36,20 Jan 2030 02:53:04.891,20 Jan 2030 07:32:04.994,16740.103
37,20 Jan 2030 15:45:39.418,20 Jan 2030 20:29:59.415,17059.997
38,21 Jan 2030 04:39:58.577,21 Jan 2030 09:29:07.539,17348.962
39,21 Jan 2030 17:36:00.285,21 Jan 2030 22:29:18.240,17597.955
40,22 Jan 2030 06:33:39.546,22 Jan 2030 11:30:22.497,17802.950
41,22 Jan 2030 19:32:50.599,23 Jan 2030 00:32:13.452,17962.853
42,23 Jan 2030 08:33:28.266,23 Jan 2030 13:34:46.242,18077.976
43,23 Jan 2030 21:35:28.693,24 Jan 2030 02:37:57.820,18149.127
44,24 Jan 2030 10:38:49.746,24 Jan 2030 15:41:46.796,18177.050
45,24 Jan 2030 23:43:31.214,25 Jan 2030 04:46:13.383,18162.169
46,25 Jan 2030 12:49:34.883,25 Jan 2030 17:51:19.411,18104.528
47,26 Jan 2030 01:57:04.518,26 Jan 2030 06:57:08.456,18003.938
48,26 Jan 2030 15:06:05.694,26 Jan 2030 20:03:46.053,17860.359
49,27 Jan 2030 04:16:45.349,27 Jan 2030 09:11:19.960,17674.611
50,27 Jan 2030 17:29:10.795,27 Jan 2030 22:20:00.406,17449.611
51,28 Jan 2030 06:43:27.864,28 Jan 2030 11:00:00.000,15392.136

