dtn_data/3_1_1/3to6.csv

"Access","Start Time (UTCG)","Stop Time (UTCG)","Duration (sec)"
1,1 Jan 2030 04:00:00.000,1 Jan 2030 04:35:49.245,2149.245
2,1 Jan 2030 05:30:28.065,1 Jan 2030 07:55:50.680,8722.615
3,1 Jan 2030 08:40:35.639,1 Jan 2030 09:54:24.040,4428.401
4,1 Jan 2030 10:50:17.545,1 Jan 2030 12:02:58.666,4361.121
5,1 Jan 2030 12:52:28.158,1 Jan 2030 15:14:56.295,8548.137
6,1 Jan 2030 16:08:29.006,1 Jan 2030 17:20:14.851,4305.845
7,1 Jan 2030 18:15:35.338,1 Jan 2030 19:35:18.507,4783.168
8,1 Jan 2030 19:56:18.654,1 Jan 2030 20:47:39.311,3080.658
9,1 Jan 2030 21:23:18.150,1 Jan 2030 22:39:12.147,4553.998
10,1 Jan 2030 23:34:53.399,2 Jan 2030 00:46:56.519,4323.121
11,2 Jan 2030 01:39:06.831,2 Jan 2030 04:00:50.458,8503.626
12,2 Jan 2030 04:52:37.545,2 Jan 2030 06:04:46.147,4328.602
13,2 Jan 2030 07:00:30.799,2 Jan 2030 08:15:55.665,4524.866
14,2 Jan 2030 08:53:44.007,2 Jan 2030 09:47:08.043,3204.036
15,2 Jan 2030 10:02:38.204,2 Jan 2030 11:24:08.806,4890.602
16,2 Jan 2030 12:19:23.577,2 Jan 2030 13:31:07.581,4304.005
17,2 Jan 2030 14:24:55.303,2 Jan 2030 16:47:40.452,8565.149
18,2 Jan 2030 17:36:31.131,2 Jan 2030 18:49:22.812,4371.682
19,2 Jan 2030 19:45:17.816,2 Jan 2030 20:58:52.396,4414.580
20,2 Jan 2030 21:44:44.310,3 Jan 2030 00:09:17.695,8673.386
21,3 Jan 2030 01:03:47.574,3 Jan 2030 02:15:27.403,4299.830
22,3 Jan 2030 03:10:16.296,3 Jan 2030 05:36:25.048,8768.752
23,3 Jan 2030 06:19:57.854,3 Jan 2030 07:34:05.175,4447.321
24,3 Jan 2030 08:29:58.200,3 Jan 2030 09:42:31.995,4353.796
25,3 Jan 2030 10:32:38.906,3 Jan 2030 12:54:45.772,8526.866
26,3 Jan 2030 13:48:04.000,3 Jan 2030 14:59:53.825,4309.824
27,3 Jan 2030 15:55:20.707,3 Jan 2030 17:13:55.269,4714.562
28,3 Jan 2030 17:39:06.174,3 Jan 2030 18:29:11.702,3005.528
29,3 Jan 2030 19:02:22.486,3 Jan 2030 20:18:54.358,4591.871
30,3 Jan 2030 21:14:32.764,3 Jan 2030 22:26:32.301,4319.538
31,3 Jan 2030 23:19:05.176,4 Jan 2030 01:40:46.919,8501.743
32,4 Jan 2030 02:32:09.935,4 Jan 2030 03:44:25.836,4335.901
33,4 Jan 2030 04:40:14.122,4 Jan 2030 05:55:15.356,4501.234
34,4 Jan 2030 06:34:58.666,4 Jan 2030 07:32:43.304,3464.638
35,4 Jan 2030 07:38:30.608,4 Jan 2030 09:03:52.548,5121.940
36,4 Jan 2030 09:59:01.597,4 Jan 2030 11:10:44.834,4303.237
37,4 Jan 2030 12:04:46.912,4 Jan 2030 14:27:51.171,8584.259
38,4 Jan 2030 15:15:59.302,4 Jan 2030 16:29:03.216,4383.914
39,4 Jan 2030 17:24:59.555,4 Jan 2030 18:38:21.993,4402.438
40,4 Jan 2030 19:25:14.029,4 Jan 2030 21:49:03.867,8629.838
41,4 Jan 2030 22:43:24.067,4 Jan 2030 23:55:05.677,4301.610
42,5 Jan 2030 00:50:03.869,5 Jan 2030 03:17:07.033,8823.164
43,5 Jan 2030 03:59:17.842,5 Jan 2030 05:13:46.437,4468.594
44,5 Jan 2030 06:09:38.565,5 Jan 2030 07:22:05.780,4347.215
45,5 Jan 2030 08:12:46.673,5 Jan 2030 10:34:36.105,8509.432
46,5 Jan 2030 11:27:38.519,5 Jan 2030 12:39:32.877,4314.358
47,5 Jan 2030 13:35:05.603,5 Jan 2030 14:52:47.138,4661.535
48,5 Jan 2030 15:21:29.915,5 Jan 2030 16:11:00.730,2970.815
49,5 Jan 2030 16:41:19.592,5 Jan 2030 17:58:36.738,4637.146
50,5 Jan 2030 18:54:11.834,5 Jan 2030 20:06:08.326,4316.492
51,5 Jan 2030 20:59:01.922,5 Jan 2030 23:20:45.129,8503.207
52,6 Jan 2030 00:11:41.607,6 Jan 2030 01:24:05.596,4343.989
53,6 Jan 2030 02:19:57.091,6 Jan 2030 03:34:37.455,4480.364
54,6 Jan 2030 04:16:02.939,6 Jan 2030 06:43:36.586,8853.647
55,6 Jan 2030 07:38:39.311,6 Jan 2030 08:50:22.246,4302.935
56,6 Jan 2030 09:44:37.583,6 Jan 2030 12:08:05.779,8608.196
57,6 Jan 2030 12:55:26.265,6 Jan 2030 14:08:43.720,4397.456
58,6 Jan 2030 15:04:40.979,6 Jan 2030 16:17:52.462,4391.483
59,6 Jan 2030 17:05:38.435,6 Jan 2030 19:28:50.541,8592.106
60,6 Jan 2030 20:23:00.170,6 Jan 2030 21:34:44.044,4303.874
61,6 Jan 2030 22:29:50.821,7 Jan 2030 00:57:57.913,8887.092
62,7 Jan 2030 01:38:35.185,7 Jan 2030 02:53:27.817,4492.631
63,7 Jan 2030 03:49:18.654,7 Jan 2030 05:01:39.988,4341.333
64,7 Jan 2030 05:52:51.782,7 Jan 2030 08:14:27.417,8495.635
65,7 Jan 2030 09:07:12.529,7 Jan 2030 10:19:12.021,4319.492
66,7 Jan 2030 11:14:50.062,7 Jan 2030 12:31:48.569,4618.507
67,7 Jan 2030 13:03:34.969,7 Jan 2030 13:53:09.831,2974.862
68,7 Jan 2030 14:20:06.474,7 Jan 2030 15:38:19.316,4692.842
69,7 Jan 2030 16:33:50.619,7 Jan 2030 17:45:44.578,4313.959
70,7 Jan 2030 18:38:57.230,7 Jan 2030 21:00:45.352,8508.122
71,7 Jan 2030 21:51:12.505,7 Jan 2030 23:03:45.438,4352.934
72,7 Jan 2030 23:59:39.701,8 Jan 2030 01:14:01.536,4461.835
73,8 Jan 2030 01:56:57.846,8 Jan 2030 04:23:20.938,8783.092
74,8 Jan 2030 05:18:16.693,8 Jan 2030 06:29:59.793,4303.100
75,8 Jan 2030 07:24:27.377,8 Jan 2030 09:48:24.930,8637.553
76,8 Jan 2030 10:34:51.833,8 Jan 2030 11:48:24.316,4412.483
77,8 Jan 2030 12:44:22.110,8 Jan 2030 13:57:23.689,4381.579
78,8 Jan 2030 14:45:58.156,8 Jan 2030 17:08:37.795,8559.639
79,8 Jan 2030 18:02:35.880,8 Jan 2030 19:14:22.518,4306.638
80,8 Jan 2030 20:09:37.190,8 Jan 2030 21:33:03.224,5006.035
81,8 Jan 2030 21:43:55.974,8 Jan 2030 22:38:59.146,3303.172
82,8 Jan 2030 23:17:49.293,9 Jan 2030 00:33:09.332,4520.039
83,9 Jan 2030 01:28:58.451,9 Jan 2030 02:41:14.560,4336.109
84,9 Jan 2030 03:32:54.531,9 Jan 2030 05:54:19.822,8485.291
85,9 Jan 2030 06:46:45.977,9 Jan 2030 07:58:51.236,4325.259
86,9 Jan 2030 08:54:34.091,9 Jan 2030 10:10:56.618,4582.526
87,9 Jan 2030 10:45:24.026,9 Jan 2030 11:35:44.731,3020.705
88,9 Jan 2030 11:58:37.616,9 Jan 2030 13:18:02.096,4764.481
89,9 Jan 2030 14:13:29.113,9 Jan 2030 15:25:21.044,4311.932
90,9 Jan 2030 16:18:51.226,9 Jan 2030 18:40:47.901,8516.674
91,9 Jan 2030 19:30:42.545,9 Jan 2030 20:43:25.368,4362.823
92,9 Jan 2030 21:39:21.977,9 Jan 2030 22:53:27.249,4445.272
93,9 Jan 2030 23:37:44.352,10 Jan 2030 02:03:05.641,8721.289
94,10 Jan 2030 02:57:53.739,10 Jan 2030 04:09:37.466,4303.727
95,10 Jan 2030 05:04:16.370,10 Jan 2030 07:28:49.400,8673.030
96,10 Jan 2030 08:14:15.818,10 Jan 2030 09:28:05.008,4429.190
97,10 Jan 2030 10:24:02.936,10 Jan 2030 11:36:55.593,4372.657
98,10 Jan 2030 12:26:13.738,10 Jan 2030 14:48:25.680,8531.942
99,10 Jan 2030 15:42:11.156,10 Jan 2030 16:54:01.076,4309.920
100,10 Jan 2030 17:49:23.023,10 Jan 2030 19:10:23.542,4860.520
101,10 Jan 2030 19:28:14.802,10 Jan 2030 20:20:12.426,3117.624
102,10 Jan 2030 20:56:59.388,10 Jan 2030 22:12:50.999,4551.610
103,10 Jan 2030 23:08:37.971,11 Jan 2030 00:20:49.470,4331.499
104,11 Jan 2030 01:12:55.164,11 Jan 2030 03:34:13.482,8478.317
105,11 Jan 2030 04:26:18.836,11 Jan 2030 05:38:30.538,4331.702
106,11 Jan 2030 06:34:17.715,11 Jan 2030 07:50:09.531,4551.816
107,11 Jan 2030 08:26:58.856,11 Jan 2030 09:18:57.746,3118.890
108,11 Jan 2030 09:36:40.676,11 Jan 2030 10:57:45.110,4864.435
109,11 Jan 2030 11:53:07.296,11 Jan 2030 13:04:57.693,4310.397
110,11 Jan 2030 13:58:44.032,11 Jan 2030 16:20:53.148,8529.116
111,11 Jan 2030 17:10:11.623,11 Jan 2030 18:23:05.372,4373.750
112,11 Jan 2030 19:19:03.927,11 Jan 2030 20:32:54.344,4430.417
113,11 Jan 2030 21:18:23.379,11 Jan 2030 23:42:50.743,8667.363
114,12 Jan 2030 00:37:30.440,12 Jan 2030 01:49:15.270,4304.830
115,12 Jan 2030 02:44:04.623,12 Jan 2030 05:09:20.123,8715.500
116,12 Jan 2030 05:53:37.948,12 Jan 2030 07:07:45.816,4447.868
117,12 Jan 2030 08:03:43.473,12 Jan 2030 09:16:28.077,4364.604
118,12 Jan 2030 10:06:25.661,12 Jan 2030 12:28:14.281,8508.620
119,12 Jan 2030 13:21:45.983,12 Jan 2030 14:33:39.728,4313.744
120,12 Jan 2030 15:29:08.333,12 Jan 2030 16:48:40.270,4771.937
121,12 Jan 2030 17:11:29.128,12 Jan 2030 18:01:39.741,3010.613
122,12 Jan 2030 18:36:04.349,12 Jan 2030 19:52:32.814,4588.465
123,12 Jan 2030 20:48:17.196,12 Jan 2030 22:00:24.689,4327.493
124,12 Jan 2030 22:52:53.910,13 Jan 2030 01:14:08.574,8474.664
125,13 Jan 2030 02:05:51.039,13 Jan 2030 03:18:09.914,4338.875
126,13 Jan 2030 04:14:00.959,13 Jan 2030 05:29:26.153,4525.194
127,13 Jan 2030 06:08:20.837,13 Jan 2030 07:03:33.045,3312.208
128,13 Jan 2030 07:13:31.213,13 Jan 2030 08:37:28.380,5037.167
129,13 Jan 2030 09:32:45.180,13 Jan 2030 10:44:34.528,4309.348
130,13 Jan 2030 11:38:35.759,13 Jan 2030 14:01:01.532,8545.774
131,13 Jan 2030 14:49:39.639,13 Jan 2030 16:02:45.472,4385.834
132,13 Jan 2030 16:58:45.551,13 Jan 2030 18:12:22.615,4417.065
133,13 Jan 2030 18:58:55.792,13 Jan 2030 21:22:36.268,8620.476
134,13 Jan 2030 22:17:06.766,13 Jan 2030 23:28:53.180,4306.414
135,14 Jan 2030 00:23:52.183,14 Jan 2030 02:49:58.186,8766.003
136,14 Jan 2030 03:32:57.914,14 Jan 2030 04:47:26.731,4468.816
137,14 Jan 2030 05:43:23.724,14 Jan 2030 06:56:01.094,4357.369
138,14 Jan 2030 07:46:34.354,14 Jan 2030 10:08:03.693,8489.339
139,14 Jan 2030 11:01:20.335,14 Jan 2030 12:13:18.471,4318.136
140,14 Jan 2030 13:08:53.169,14 Jan 2030 14:27:20.482,4707.314
141,14 Jan 2030 14:54:11.060,14 Jan 2030 15:43:23.528,2952.468
142,14 Jan 2030 16:15:02.517,14 Jan 2030 17:32:14.805,4632.288
143,14 Jan 2030 18:27:56.133,14 Jan 2030 19:40:00.175,4324.042
144,14 Jan 2030 20:32:50.964,14 Jan 2030 22:54:05.296,8474.333
145,14 Jan 2030 23:45:22.538,15 Jan 2030 00:57:49.370,4346.832
146,15 Jan 2030 01:53:43.821,15 Jan 2030 03:08:45.704,4501.882
147,15 Jan 2030 03:49:31.214,15 Jan 2030 06:17:11.916,8860.702
148,15 Jan 2030 07:12:22.740,15 Jan 2030 08:24:11.523,4308.783
149,15 Jan 2030 09:18:26.487,15 Jan 2030 11:41:13.580,8567.093
150,15 Jan 2030 12:29:06.441,15 Jan 2030 13:42:25.659,4399.218
151,15 Jan 2030 14:38:26.868,15 Jan 2030 15:51:51.887,4405.019
152,15 Jan 2030 16:39:22.367,15 Jan 2030 19:02:22.282,8579.915
153,15 Jan 2030 19:56:42.717,15 Jan 2030 21:08:31.209,4308.492
154,15 Jan 2030 22:03:39.094,16 Jan 2030 00:30:44.871,8825.777
155,16 Jan 2030 01:12:15.291,16 Jan 2030 02:27:07.768,4492.477
156,16 Jan 2030 03:23:03.676,16 Jan 2030 04:35:34.569,4350.893
157,16 Jan 2030 05:26:40.190,16 Jan 2030 07:47:54.011,8473.821
158,16 Jan 2030 08:40:54.164,16 Jan 2030 09:52:57.292,4323.128
159,16 Jan 2030 10:48:37.539,16 Jan 2030 12:06:14.098,4656.560
160,16 Jan 2030 12:36:30.068,16 Jan 2030 13:25:27.045,2936.977
161,16 Jan 2030 13:53:51.220,16 Jan 2030 15:11:56.977,4685.756
162,16 Jan 2030 16:07:34.783,16 Jan 2030 17:19:35.922,4321.139
163,16 Jan 2030 18:12:46.482,16 Jan 2030 20:34:03.914,8477.432
164,16 Jan 2030 21:24:53.265,16 Jan 2030 22:37:28.913,4355.648
165,16 Jan 2030 23:33:26.328,17 Jan 2030 00:48:07.612,4481.284
166,17 Jan 2030 01:30:31.144,17 Jan 2030 03:56:55.758,8784.614
167,17 Jan 2030 04:51:59.971,17 Jan 2030 06:03:48.664,4308.693
168,17 Jan 2030 06:58:16.306,17 Jan 2030 09:21:29.937,8593.631
169,17 Jan 2030 10:08:31.882,17 Jan 2030 11:22:05.935,4414.053
170,17 Jan 2030 12:18:07.868,17 Jan 2030 13:31:22.040,4394.171
171,17 Jan 2030 14:19:43.814,17 Jan 2030 16:42:08.825,8545.011
172,17 Jan 2030 17:36:18.257,17 Jan 2030 18:48:09.336,4311.078
173,17 Jan 2030 19:43:25.413,17 Jan 2030 22:11:41.668,8896.255
174,17 Jan 2030 22:51:29.530,18 Jan 2030 00:06:48.942,4519.412
175,18 Jan 2030 01:02:43.349,18 Jan 2030 02:15:08.463,4345.114
176,18 Jan 2030 03:06:43.489,18 Jan 2030 05:27:45.358,8461.869
177,18 Jan 2030 06:20:27.449,18 Jan 2030 07:32:36.204,4328.754
178,18 Jan 2030 08:28:21.471,18 Jan 2030 09:45:16.458,4614.987
179,18 Jan 2030 10:18:30.403,18 Jan 2030 11:07:55.360,2964.957
180,18 Jan 2030 11:32:25.769,18 Jan 2030 12:51:39.344,4753.575
181,18 Jan 2030 13:47:13.125,18 Jan 2030 14:59:11.891,4318.765
182,18 Jan 2030 15:52:40.622,18 Jan 2030 18:14:04.708,8484.085
183,18 Jan 2030 19:04:23.129,18 Jan 2030 20:17:08.531,4365.402
184,18 Jan 2030 21:13:08.492,18 Jan 2030 22:27:31.449,4462.957
185,18 Jan 2030 23:11:21.749,19 Jan 2030 01:36:39.940,8718.191
186,19 Jan 2030 02:31:36.870,19 Jan 2030 03:43:25.957,4309.087
187,19 Jan 2030 04:38:05.291,19 Jan 2030 07:01:51.360,8626.070
188,19 Jan 2030 07:47:55.750,19 Jan 2030 09:01:46.320,4430.570
189,19 Jan 2030 09:57:48.571,19 Jan 2030 11:10:52.946,4384.374
190,19 Jan 2030 12:00:00.748,19 Jan 2030 14:21:55.973,8515.224
191,19 Jan 2030 15:15:53.372,19 Jan 2030 16:27:47.561,4314.189
192,19 Jan 2030 17:23:11.159,19 Jan 2030 18:45:49.671,4958.512
193,19 Jan 2030 18:59:52.298,19 Jan 2030 19:52:50.329,3178.031
194,19 Jan 2030 20:30:39.899,19 Jan 2030 21:46:30.248,4550.349
195,19 Jan 2030 22:42:22.725,19 Jan 2030 23:54:42.738,4340.013
196,20 Jan 2030 00:46:44.539,20 Jan 2030 03:07:37.886,8453.347
197,20 Jan 2030 04:00:00.131,20 Jan 2030 05:12:15.195,4335.063
198,20 Jan 2030 06:08:04.995,20 Jan 2030 07:24:24.997,4580.002
199,20 Jan 2030 08:00:14.531,20 Jan 2030 08:50:58.417,3043.887
200,20 Jan 2030 09:10:36.282,20 Jan 2030 10:31:21.941,4845.659
201,20 Jan 2030 11:26:51.173,20 Jan 2030 12:38:48.078,4316.905
202,20 Jan 2030 13:32:33.517,20 Jan 2030 15:54:08.041,8494.523
203,20 Jan 2030 16:43:52.052,20 Jan 2030 17:56:48.242,4376.190
204,20 Jan 2030 18:52:50.313,20 Jan 2030 20:06:56.906,4446.593
205,20 Jan 2030 20:52:04.081,20 Jan 2030 23:16:24.483,8660.402
206,21 Jan 2030 00:11:13.408,21 Jan 2030 01:23:03.375,4309.967
207,21 Jan 2030 02:17:53.500,21 Jan 2030 04:42:18.759,8665.259
208,21 Jan 2030 05:27:17.798,21 Jan 2030 06:41:26.803,4449.005
209,21 Jan 2030 07:37:28.981,21 Jan 2030 08:50:24.531,4375.550
210,21 Jan 2030 09:40:13.723,21 Jan 2030 12:01:43.800,8490.077
211,21 Jan 2030 12:55:28.043,21 Jan 2030 14:07:25.890,4317.847
212,21 Jan 2030 15:02:56.385,21 Jan 2030 16:23:34.103,4837.719
213,21 Jan 2030 16:43:45.561,21 Jan 2030 17:34:12.886,3027.325
214,21 Jan 2030 18:09:45.345,21 Jan 2030 19:26:11.713,4586.368
215,21 Jan 2030 20:22:01.812,21 Jan 2030 21:34:17.344,4335.532
216,21 Jan 2030 22:26:43.587,22 Jan 2030 00:47:31.754,8448.167
217,22 Jan 2030 01:39:32.169,22 Jan 2030 02:51:54.264,4342.095
218,22 Jan 2030 03:47:48.114,22 Jan 2030 05:03:38.131,4550.017
219,22 Jan 2030 05:41:44.196,22 Jan 2030 06:35:05.496,3201.300
220,22 Jan 2030 06:47:53.289,22 Jan 2030 08:11:04.767,4991.478
221,22 Jan 2030 09:06:28.905,22 Jan 2030 10:18:24.457,4315.552
222,22 Jan 2030 11:12:25.271,22 Jan 2030 13:34:14.335,8509.063
223,22 Jan 2030 14:23:19.905,22 Jan 2030 15:36:28.036,4388.131
224,22 Jan 2030 16:32:31.815,22 Jan 2030 17:46:23.717,4431.902
225,22 Jan 2030 18:32:39.124,22 Jan 2030 20:56:09.446,8610.322
226,22 Jan 2030 21:50:49.589,22 Jan 2030 23:02:40.926,4311.337
227,22 Jan 2030 23:57:40.987,23 Jan 2030 02:22:53.222,8712.234
228,23 Jan 2030 03:06:37.725,23 Jan 2030 04:21:07.400,4469.676
229,23 Jan 2030 05:17:09.086,23 Jan 2030 06:29:56.703,4367.617
230,23 Jan 2030 07:20:23.223,23 Jan 2030 09:41:32.382,8469.160
231,23 Jan 2030 10:35:02.224,23 Jan 2030 11:47:04.305,4322.081
232,23 Jan 2030 12:42:41.106,23 Jan 2030 14:01:58.608,4757.502
233,23 Jan 2030 14:26:49.635,23 Jan 2030 15:15:51.798,2942.163
234,23 Jan 2030 15:48:44.347,23 Jan 2030 17:05:53.338,4628.992
235,23 Jan 2030 18:01:40.613,23 Jan 2030 19:13:52.267,4331.654
236,23 Jan 2030 20:06:40.835,23 Jan 2030 22:27:27.159,8446.324
237,23 Jan 2030 23:19:03.508,24 Jan 2030 00:31:33.426,4349.918
238,24 Jan 2030 01:27:30.853,24 Jan 2030 02:42:54.820,4523.967
239,24 Jan 2030 03:23:00.873,24 Jan 2030 05:50:47.867,8866.994
240,24 Jan 2030 06:46:06.314,24 Jan 2030 07:58:01.012,4314.698
241,24 Jan 2030 08:52:15.992,24 Jan 2030 11:14:24.100,8528.108
242,24 Jan 2030 12:02:46.575,24 Jan 2030 13:16:07.918,4401.343
243,24 Jan 2030 14:12:12.989,24 Jan 2030 15:25:51.698,4418.709
244,24 Jan 2030 16:13:07.763,24 Jan 2030 18:35:54.861,8567.098
245,24 Jan 2030 19:30:25.380,24 Jan 2030 20:42:18.593,4313.213
246,24 Jan 2030 21:37:27.819,25 Jan 2030 00:03:36.036,8768.218
247,25 Jan 2030 00:45:55.115,25 Jan 2030 02:00:48.124,4493.010
248,25 Jan 2030 02:56:48.908,25 Jan 2030 04:09:29.398,4360.489
249,25 Jan 2030 05:00:29.664,25 Jan 2030 07:21:21.819,8452.156
250,25 Jan 2030 08:14:35.901,25 Jan 2030 09:26:42.816,4326.915
251,25 Jan 2030 10:22:25.354,25 Jan 2030 11:40:42.509,4697.155
252,25 Jan 2030 12:09:24.396,25 Jan 2030 12:57:50.226,2905.830
253,25 Jan 2030 13:27:34.495,25 Jan 2030 14:45:35.138,4680.643
254,25 Jan 2030 15:41:19.110,25 Jan 2030 16:53:27.463,4328.353
255,25 Jan 2030 17:46:36.478,25 Jan 2030 20:07:24.346,8447.868
256,25 Jan 2030 20:58:34.068,25 Jan 2030 22:11:12.664,4358.597
257,25 Jan 2030 23:07:13.230,26 Jan 2030 00:22:14.318,4501.088
258,26 Jan 2030 01:04:05.928,26 Jan 2030 03:30:31.253,8785.326
259,26 Jan 2030 04:25:43.404,26 Jan 2030 05:37:37.745,4314.341
260,26 Jan 2030 06:32:05.770,26 Jan 2030 08:54:37.947,8552.178
261,26 Jan 2030 09:42:11.886,26 Jan 2030 10:55:47.905,4416.019
262,26 Jan 2030 11:51:53.856,26 Jan 2030 13:05:20.674,4406.818
263,26 Jan 2030 13:53:30.810,26 Jan 2030 16:15:40.783,8529.973
264,26 Jan 2030 17:10:00.765,26 Jan 2030 18:21:56.369,4315.604
265,26 Jan 2030 19:17:14.021,26 Jan 2030 21:44:28.731,8834.710
266,26 Jan 2030 22:25:09.461,26 Jan 2030 23:40:28.968,4519.507
267,27 Jan 2030 00:36:28.433,27 Jan 2030 01:49:02.571,4354.138
268,27 Jan 2030 02:40:33.399,27 Jan 2030 05:01:12.240,8438.841
269,27 Jan 2030 05:54:09.020,27 Jan 2030 07:06:21.415,4332.395
270,27 Jan 2030 08:02:09.164,27 Jan 2030 09:19:38.131,4648.967
271,27 Jan 2030 09:51:36.979,27 Jan 2030 10:40:12.818,2915.838
272,27 Jan 2030 11:06:11.662,27 Jan 2030 12:25:17.142,4745.480
273,27 Jan 2030 13:20:57.317,27 Jan 2030 14:33:02.918,4325.601
274,27 Jan 2030 15:26:30.680,27 Jan 2030 17:47:23.589,8452.909
275,27 Jan 2030 18:38:03.787,27 Jan 2030 19:50:51.992,4368.205
276,27 Jan 2030 20:46:55.249,27 Jan 2030 22:01:36.109,4480.859
277,27 Jan 2030 22:45:00.636,28 Jan 2030 01:10:14.957,8714.321
278,28 Jan 2030 02:05:20.146,28 Jan 2030 03:17:14.628,4314.481
279,28 Jan 2030 04:11:54.678,28 Jan 2030 06:34:56.620,8581.942
280,28 Jan 2030 07:21:35.652,28 Jan 2030 08:35:27.985,4432.334
281,28 Jan 2030 09:31:34.422,28 Jan 2030 10:44:50.522,4396.100

