dtn_data/3_1_1/3to7.csv

"Access","Start Time (UTCG)","Stop Time (UTCG)","Duration (sec)"
1,1 Jan 2030 04:20:31.492,1 Jan 2030 06:44:37.721,8646.229
2,1 Jan 2030 07:38:57.733,1 Jan 2030 08:50:37.121,4299.389
3,1 Jan 2030 09:45:32.130,1 Jan 2030 12:12:35.459,8823.329
4,1 Jan 2030 12:54:58.022,1 Jan 2030 14:09:19.294,4461.272
5,1 Jan 2030 15:05:10.148,1 Jan 2030 16:17:36.075,4345.927
6,1 Jan 2030 17:08:08.918,1 Jan 2030 19:30:10.164,8521.246
7,1 Jan 2030 20:23:13.138,1 Jan 2030 21:35:04.703,4311.565
8,1 Jan 2030 22:30:34.953,1 Jan 2030 23:48:17.612,4662.659
9,2 Jan 2030 00:16:31.690,2 Jan 2030 01:06:15.359,2983.669
10,2 Jan 2030 01:37:07.064,2 Jan 2030 02:54:09.971,4622.907
11,2 Jan 2030 03:49:44.125,2 Jan 2030 05:01:39.053,4314.927
12,2 Jan 2030 05:54:27.104,2 Jan 2030 08:16:18.987,8511.884
13,2 Jan 2030 09:07:17.482,2 Jan 2030 10:19:37.796,4340.314
14,2 Jan 2030 11:15:27.317,2 Jan 2030 12:30:07.138,4479.821
15,2 Jan 2030 13:11:14.134,2 Jan 2030 15:39:10.178,8876.043
16,2 Jan 2030 16:34:12.329,2 Jan 2030 17:45:53.375,4301.046
17,2 Jan 2030 18:40:04.679,2 Jan 2030 21:03:38.128,8613.448
18,2 Jan 2030 21:51:03.995,2 Jan 2030 23:04:16.283,4392.287
19,3 Jan 2030 00:00:11.980,3 Jan 2030 01:13:22.440,4390.459
20,3 Jan 2030 02:00:56.810,3 Jan 2030 04:24:24.457,8607.646
21,3 Jan 2030 05:18:34.022,3 Jan 2030 06:30:15.573,4301.551
22,3 Jan 2030 07:25:19.285,3 Jan 2030 09:53:24.659,8885.374
23,3 Jan 2030 10:34:16.287,3 Jan 2030 11:49:00.757,4484.470
24,3 Jan 2030 12:44:50.372,3 Jan 2030 13:57:10.379,4340.007
25,3 Jan 2030 14:48:14.596,3 Jan 2030 17:10:01.484,8506.888
26,3 Jan 2030 18:02:47.382,3 Jan 2030 19:14:43.922,4316.540
27,3 Jan 2030 20:10:19.568,3 Jan 2030 21:27:18.775,4619.207
28,3 Jan 2030 21:58:37.987,3 Jan 2030 22:48:19.214,2981.227
29,3 Jan 2030 23:15:57.197,4 Jan 2030 00:33:52.620,4675.423
30,4 Jan 2030 01:29:23.047,4 Jan 2030 02:41:15.395,4312.348
31,4 Jan 2030 03:34:22.772,4 Jan 2030 05:56:19.069,8516.297
32,4 Jan 2030 06:46:48.704,4 Jan 2030 07:59:17.712,4349.009
33,4 Jan 2030 08:55:10.079,4 Jan 2030 10:09:31.299,4461.221
34,4 Jan 2030 10:52:10.297,4 Jan 2030 13:18:54.605,8804.309
35,4 Jan 2030 14:13:49.878,4 Jan 2030 15:25:31.011,4301.133
36,4 Jan 2030 16:19:54.734,4 Jan 2030 18:43:56.651,8641.917
37,4 Jan 2030 19:30:30.097,4 Jan 2030 20:43:56.958,4406.861
38,4 Jan 2030 21:39:53.243,4 Jan 2030 22:52:53.773,4380.530
39,4 Jan 2030 23:41:17.385,5 Jan 2030 02:04:11.753,8574.368
40,5 Jan 2030 02:58:09.915,5 Jan 2030 04:09:54.117,4304.202
41,5 Jan 2030 05:05:05.848,5 Jan 2030 06:28:49.187,5023.338
42,5 Jan 2030 06:38:37.673,5 Jan 2030 07:34:23.785,3346.112
43,5 Jan 2030 08:13:31.511,5 Jan 2030 09:28:42.346,4510.835
44,5 Jan 2030 10:24:30.308,5 Jan 2030 11:36:45.059,4334.750
45,5 Jan 2030 12:28:17.869,5 Jan 2030 14:49:53.884,8496.015
46,5 Jan 2030 15:42:21.081,5 Jan 2030 16:54:23.218,4322.137
47,5 Jan 2030 17:50:03.765,5 Jan 2030 19:06:26.708,4582.942
48,5 Jan 2030 19:40:28.372,5 Jan 2030 20:30:46.863,3018.491
49,5 Jan 2030 20:54:33.370,5 Jan 2030 22:13:35.482,4742.112
50,5 Jan 2030 23:09:01.687,6 Jan 2030 00:20:51.947,4310.260
51,6 Jan 2030 01:14:17.120,6 Jan 2030 03:36:21.414,8524.294
52,6 Jan 2030 04:26:19.101,6 Jan 2030 05:38:57.711,4358.610
53,6 Jan 2030 06:34:52.496,6 Jan 2030 07:48:57.114,4444.618
54,6 Jan 2030 08:32:58.051,6 Jan 2030 10:58:39.373,8741.321
55,6 Jan 2030 11:53:27.086,6 Jan 2030 13:05:08.769,4301.683
56,6 Jan 2030 13:59:43.975,6 Jan 2030 16:24:20.310,8676.336
57,6 Jan 2030 17:09:54.674,6 Jan 2030 18:23:37.728,4423.054
58,6 Jan 2030 19:19:34.214,6 Jan 2030 20:32:25.783,4371.568
59,6 Jan 2030 21:21:33.773,6 Jan 2030 23:43:59.684,8545.911
60,7 Jan 2030 00:37:45.400,7 Jan 2030 01:49:32.764,4307.364
61,7 Jan 2030 02:44:51.872,7 Jan 2030 04:05:59.396,4867.524
62,7 Jan 2030 04:23:06.855,7 Jan 2030 05:15:34.432,3147.576
63,7 Jan 2030 05:52:42.957,7 Jan 2030 07:08:24.085,4541.128
64,7 Jan 2030 08:04:09.958,7 Jan 2030 09:16:20.064,4330.105
65,7 Jan 2030 10:08:19.008,7 Jan 2030 12:29:47.507,8488.499
66,7 Jan 2030 13:21:54.197,7 Jan 2030 14:34:02.589,4328.392
67,7 Jan 2030 15:29:47.550,7 Jan 2030 16:45:39.572,4552.022
68,7 Jan 2030 17:22:04.625,7 Jan 2030 18:13:48.175,3103.550
69,7 Jan 2030 18:32:45.730,7 Jan 2030 19:53:18.564,4832.834
70,7 Jan 2030 20:48:40.023,7 Jan 2030 22:00:28.695,4308.673
71,7 Jan 2030 22:54:10.255,8 Jan 2030 01:16:26.382,8536.127
72,8 Jan 2030 02:05:48.566,8 Jan 2030 03:18:37.799,4369.233
73,8 Jan 2030 04:14:34.591,8 Jan 2030 05:28:24.304,4429.713
74,8 Jan 2030 06:13:38.292,8 Jan 2030 08:38:24.532,8686.241
75,8 Jan 2030 09:33:03.958,8 Jan 2030 10:44:46.656,4302.698
76,8 Jan 2030 11:39:32.461,8 Jan 2030 14:04:49.979,8717.518
77,8 Jan 2030 14:49:17.491,8 Jan 2030 16:03:18.601,4441.110
78,8 Jan 2030 16:59:14.885,8 Jan 2030 18:11:58.378,4363.494
79,8 Jan 2030 19:01:46.459,8 Jan 2030 21:23:48.314,8521.855
80,8 Jan 2030 22:17:20.433,8 Jan 2030 23:29:11.490,4311.056
81,9 Jan 2030 00:24:37.373,9 Jan 2030 01:44:13.423,4776.050
82,9 Jan 2030 02:06:24.416,9 Jan 2030 02:56:58.461,3034.044
83,9 Jan 2030 03:31:49.626,9 Jan 2030 04:48:05.971,4576.344
84,9 Jan 2030 05:43:49.332,9 Jan 2030 06:55:55.381,4326.049
85,9 Jan 2030 07:48:18.224,9 Jan 2030 10:09:42.522,8484.298
86,9 Jan 2030 11:01:26.689,9 Jan 2030 12:13:42.047,4335.358
87,9 Jan 2030 13:09:30.945,9 Jan 2030 14:24:56.205,4525.260
88,9 Jan 2030 15:03:28.112,9 Jan 2030 15:57:52.909,3264.797
89,9 Jan 2030 16:10:04.298,9 Jan 2030 17:33:01.893,4977.595
90,9 Jan 2030 18:28:18.051,9 Jan 2030 19:40:05.611,4307.560
91,9 Jan 2030 20:34:02.294,9 Jan 2030 22:56:34.395,8552.101
92,9 Jan 2030 23:45:17.004,10 Jan 2030 00:58:17.964,4380.960
93,10 Jan 2030 01:54:16.357,10 Jan 2030 03:07:52.679,4416.322
94,10 Jan 2030 03:54:11.857,10 Jan 2030 06:18:10.110,8638.253
95,10 Jan 2030 07:12:40.464,10 Jan 2030 08:24:24.654,4304.190
96,10 Jan 2030 09:19:20.256,10 Jan 2030 11:45:26.703,8766.448
97,10 Jan 2030 12:28:38.233,10 Jan 2030 13:42:59.595,4461.363
98,10 Jan 2030 14:38:55.274,10 Jan 2030 15:51:31.491,4356.217
99,10 Jan 2030 16:41:55.864,10 Jan 2030 19:03:37.730,8501.866
100,10 Jan 2030 19:56:55.006,10 Jan 2030 21:08:50.312,4315.306
101,10 Jan 2030 22:04:22.386,10 Jan 2030 23:22:52.455,4710.069
102,10 Jan 2030 23:49:08.385,11 Jan 2030 00:38:38.134,2969.749
103,11 Jan 2030 01:10:50.018,11 Jan 2030 02:27:48.027,4618.010
104,11 Jan 2030 03:23:28.409,11 Jan 2030 04:35:30.966,4322.557
105,11 Jan 2030 05:28:15.719,11 Jan 2030 07:49:39.145,8483.425
106,11 Jan 2030 08:40:58.485,11 Jan 2030 09:53:21.577,4343.092
107,11 Jan 2030 10:49:13.972,11 Jan 2030 12:04:15.787,4501.815
108,11 Jan 2030 12:44:40.034,11 Jan 2030 15:12:45.501,8885.467
109,11 Jan 2030 16:07:55.773,11 Jan 2030 17:19:42.698,4306.925
110,11 Jan 2030 18:13:53.333,11 Jan 2030 20:36:45.957,8572.623
111,11 Jan 2030 21:24:44.284,11 Jan 2030 22:37:58.227,4393.943
112,11 Jan 2030 23:33:57.813,12 Jan 2030 00:47:22.056,4404.243
113,12 Jan 2030 01:34:39.530,12 Jan 2030 03:57:56.167,8596.638
114,12 Jan 2030 04:52:16.590,12 Jan 2030 06:04:02.756,4306.166
115,12 Jan 2030 06:59:07.392,12 Jan 2030 09:26:11.690,8824.297
116,12 Jan 2030 10:07:56.528,12 Jan 2030 11:22:40.701,4484.174
117,12 Jan 2030 12:18:35.371,12 Jan 2030 13:31:05.078,4349.707
118,12 Jan 2030 14:22:02.363,12 Jan 2030 16:43:28.048,8485.685
119,12 Jan 2030 17:36:29.069,12 Jan 2030 18:48:29.214,4320.145
120,12 Jan 2030 19:44:06.943,12 Jan 2030 21:01:45.452,4658.510
121,12 Jan 2030 21:31:29.152,12 Jan 2030 22:20:36.385,2947.233
122,12 Jan 2030 22:49:41.806,13 Jan 2030 00:07:30.270,4668.465
123,13 Jan 2030 01:03:07.204,13 Jan 2030 02:15:06.802,4319.598
124,13 Jan 2030 03:08:11.666,13 Jan 2030 05:29:37.597,8485.931
125,13 Jan 2030 06:20:29.537,13 Jan 2030 07:33:01.188,4351.651
126,13 Jan 2030 08:28:56.633,13 Jan 2030 09:43:37.755,4481.122
127,13 Jan 2030 10:25:41.520,13 Jan 2030 12:52:29.397,8807.878
128,13 Jan 2030 13:47:33.163,13 Jan 2030 14:59:19.927,4306.764
129,13 Jan 2030 15:53:43.443,13 Jan 2030 18:17:01.667,8598.224
130,13 Jan 2030 19:04:10.241,13 Jan 2030 20:17:38.578,4408.337
131,13 Jan 2030 21:13:38.967,13 Jan 2030 22:26:52.310,4393.343
132,13 Jan 2030 23:15:02.004,14 Jan 2030 01:37:42.753,8560.749
133,14 Jan 2030 02:31:52.327,14 Jan 2030 03:43:40.970,4308.643
134,14 Jan 2030 04:38:53.930,14 Jan 2030 07:07:06.353,8892.423
135,14 Jan 2030 07:47:11.854,14 Jan 2030 09:02:21.942,4510.088
136,14 Jan 2030 09:58:15.176,14 Jan 2030 11:10:39.071,4343.896
137,14 Jan 2030 12:02:06.288,14 Jan 2030 14:23:19.369,8473.081
138,14 Jan 2030 15:16:02.592,14 Jan 2030 16:28:08.193,4325.601
139,14 Jan 2030 17:23:51.054,14 Jan 2030 18:40:47.472,4616.417
140,14 Jan 2030 19:13:31.239,14 Jan 2030 20:02:57.620,2966.381
141,14 Jan 2030 20:28:20.979,14 Jan 2030 21:47:12.702,4731.723
142,14 Jan 2030 22:42:45.698,14 Jan 2030 23:54:42.873,4317.175
143,15 Jan 2030 00:48:06.203,15 Jan 2030 03:09:38.179,8491.976
144,15 Jan 2030 03:59:59.756,15 Jan 2030 05:12:40.887,4361.131
145,15 Jan 2030 06:08:38.953,15 Jan 2030 07:23:01.664,4462.711
146,15 Jan 2030 08:06:33.642,15 Jan 2030 10:32:13.632,8739.990
147,15 Jan 2030 11:27:10.223,15 Jan 2030 12:38:57.302,4307.079
148,15 Jan 2030 13:33:32.701,15 Jan 2030 15:57:22.262,8629.561
149,15 Jan 2030 16:43:34.701,15 Jan 2030 17:57:19.025,4424.323
150,15 Jan 2030 18:53:19.809,15 Jan 2030 20:06:23.330,4383.521
151,15 Jan 2030 20:55:19.902,15 Jan 2030 23:17:29.925,8530.023
152,16 Jan 2030 00:11:27.638,16 Jan 2030 01:23:19.274,4311.637
153,16 Jan 2030 02:18:39.892,16 Jan 2030 03:41:33.757,4973.866
154,16 Jan 2030 03:54:33.077,16 Jan 2030 04:48:12.329,3219.251
155,16 Jan 2030 05:26:23.548,16 Jan 2030 06:42:03.313,4539.766
156,16 Jan 2030 07:37:54.702,16 Jan 2030 08:50:13.449,4338.747
157,16 Jan 2030 09:42:07.920,16 Jan 2030 12:03:11.837,8463.916
158,16 Jan 2030 12:55:35.541,16 Jan 2030 14:07:47.264,4331.723
159,16 Jan 2030 15:03:34.745,16 Jan 2030 16:19:55.829,4581.084
160,16 Jan 2030 16:55:17.176,16 Jan 2030 17:45:49.965,3032.789
161,16 Jan 2030 18:06:39.548,16 Jan 2030 19:26:55.353,4815.805
162,16 Jan 2030 20:22:23.887,16 Jan 2030 21:34:19.146,4315.258
163,16 Jan 2030 22:27:59.474,17 Jan 2030 00:49:41.219,8501.746
164,17 Jan 2030 01:39:29.052,17 Jan 2030 02:52:20.660,4371.608
165,17 Jan 2030 03:48:20.927,17 Jan 2030 05:02:27.203,4446.275
166,17 Jan 2030 05:47:17.439,17 Jan 2030 08:11:58.226,8680.787
167,17 Jan 2030 09:06:46.938,17 Jan 2030 10:18:34.813,4307.876
168,17 Jan 2030 11:13:21.181,17 Jan 2030 13:37:48.599,8667.417
169,17 Jan 2030 14:22:57.416,17 Jan 2030 15:36:59.583,4442.167
170,17 Jan 2030 16:33:00.363,17 Jan 2030 17:45:55.011,4374.649
171,17 Jan 2030 18:35:33.775,17 Jan 2030 20:57:17.757,8503.982
172,17 Jan 2030 21:51:02.515,17 Jan 2030 23:02:57.677,4315.162
173,17 Jan 2030 23:58:25.318,18 Jan 2030 01:19:10.969,4845.651
174,18 Jan 2030 01:38:34.183,18 Jan 2030 02:29:31.540,3057.357
175,18 Jan 2030 03:05:30.649,18 Jan 2030 04:21:44.838,4574.188
176,18 Jan 2030 05:17:33.930,18 Jan 2030 06:29:48.158,4334.228
177,18 Jan 2030 07:22:07.507,18 Jan 2030 09:43:05.620,8458.113
178,18 Jan 2030 10:35:07.851,18 Jan 2030 11:47:26.407,4338.556
179,18 Jan 2030 12:43:18.042,18 Jan 2030 13:59:08.868,4550.827
180,18 Jan 2030 14:36:48.718,18 Jan 2030 15:29:34.400,3165.682
181,18 Jan 2030 15:44:16.393,18 Jan 2030 17:06:38.245,4941.851
182,18 Jan 2030 18:02:01.777,18 Jan 2030 19:13:55.621,4313.843
183,18 Jan 2030 20:07:51.594,18 Jan 2030 22:29:47.118,8515.525
184,18 Jan 2030 23:18:57.332,19 Jan 2030 00:32:00.529,4383.197
185,19 Jan 2030 01:28:02.576,19 Jan 2030 02:41:54.106,4431.530
186,19 Jan 2030 03:27:53.868,19 Jan 2030 05:51:43.219,8629.351
187,19 Jan 2030 06:46:23.286,19 Jan 2030 07:58:12.440,4309.154
188,19 Jan 2030 08:53:08.929,19 Jan 2030 11:18:21.706,8712.778
189,19 Jan 2030 12:02:18.110,19 Jan 2030 13:16:40.244,4462.133
190,19 Jan 2030 14:12:40.615,19 Jan 2030 15:25:27.292,4366.677
191,19 Jan 2030 16:15:44.101,19 Jan 2030 18:37:06.337,8482.237
192,19 Jan 2030 19:30:36.916,19 Jan 2030 20:42:36.176,4319.260
193,19 Jan 2030 21:38:10.247,19 Jan 2030 22:57:32.921,4762.674
194,19 Jan 2030 23:21:41.789,20 Jan 2030 00:11:06.267,2964.478
195,20 Jan 2030 00:44:31.796,20 Jan 2030 02:01:26.528,4614.732
196,20 Jan 2030 02:57:12.872,20 Jan 2030 04:09:23.172,4330.300
197,20 Jan 2030 05:02:05.271,20 Jan 2030 07:23:00.902,8455.631
198,20 Jan 2030 08:14:39.486,20 Jan 2030 09:27:05.636,4346.151
199,20 Jan 2030 10:23:00.949,20 Jan 2030 11:38:25.522,4524.573
200,20 Jan 2030 12:18:07.304,20 Jan 2030 14:46:21.388,8894.084
201,20 Jan 2030 15:41:39.343,20 Jan 2030 16:53:32.266,4312.923
202,20 Jan 2030 17:47:42.656,20 Jan 2030 20:09:56.374,8533.718
203,20 Jan 2030 20:58:24.454,20 Jan 2030 22:11:40.481,4396.027
204,20 Jan 2030 23:07:43.911,21 Jan 2030 00:21:22.172,4418.261
205,21 Jan 2030 01:08:23.818,21 Jan 2030 03:31:28.667,8584.849
206,21 Jan 2030 04:25:59.263,21 Jan 2030 05:37:50.193,4310.930
207,21 Jan 2030 06:32:56.010,21 Jan 2030 08:59:02.803,8766.793
208,21 Jan 2030 09:41:36.397,21 Jan 2030 10:56:21.029,4484.632
209,21 Jan 2030 11:52:20.574,21 Jan 2030 13:05:00.089,4359.515
210,21 Jan 2030 13:55:51.310,21 Jan 2030 16:16:55.752,8464.442
211,21 Jan 2030 17:10:10.812,21 Jan 2030 18:22:14.756,4323.943
212,21 Jan 2030 19:17:54.695,21 Jan 2030 20:36:15.576,4700.880
213,21 Jan 2030 21:04:19.135,21 Jan 2030 21:52:59.387,2920.252
214,21 Jan 2030 22:23:24.872,21 Jan 2030 23:41:08.386,4663.514
215,22 Jan 2030 00:36:51.523,22 Jan 2030 01:48:58.472,4326.949
216,22 Jan 2030 02:42:01.390,22 Jan 2030 05:02:57.907,8456.516
217,22 Jan 2030 05:54:10.363,22 Jan 2030 07:06:44.953,4354.590
218,22 Jan 2030 08:02:43.495,22 Jan 2030 09:17:45.024,4501.529
219,22 Jan 2030 09:59:14.242,22 Jan 2030 12:26:04.821,8810.579
220,22 Jan 2030 13:21:16.588,22 Jan 2030 14:33:09.082,4312.494
221,22 Jan 2030 15:27:32.753,22 Jan 2030 17:50:09.566,8556.813
222,22 Jan 2030 18:37:50.284,22 Jan 2030 19:51:20.525,4410.242
223,22 Jan 2030 20:47:24.923,22 Jan 2030 22:00:51.250,4406.326
224,22 Jan 2030 22:48:48.076,23 Jan 2030 01:11:14.610,8546.533
225,23 Jan 2030 02:05:34.835,23 Jan 2030 03:17:28.052,4313.217
226,23 Jan 2030 04:12:42.456,23 Jan 2030 06:39:53.322,8830.866
227,23 Jan 2030 07:20:51.806,23 Jan 2030 08:36:01.932,4510.126
228,23 Jan 2030 09:32:00.250,23 Jan 2030 10:44:33.364,4353.114
229,23 Jan 2030 11:35:55.767,23 Jan 2030 13:56:46.123,8450.356
230,23 Jan 2030 14:49:44.179,23 Jan 2030 16:01:53.433,4329.254
231,23 Jan 2030 16:57:38.689,23 Jan 2030 18:15:10.492,4651.804
232,23 Jan 2030 18:46:34.062,23 Jan 2030 19:35:14.994,2920.932
233,23 Jan 2030 20:02:06.350,23 Jan 2030 21:20:50.441,4724.091
234,23 Jan 2030 22:16:29.871,23 Jan 2030 23:28:34.018,4324.147
235,24 Jan 2030 00:21:56.038,24 Jan 2030 02:42:56.912,8460.874
236,24 Jan 2030 03:33:40.420,24 Jan 2030 04:46:24.345,4363.925
237,24 Jan 2030 05:42:25.679,24 Jan 2030 06:57:06.840,4481.161
238,24 Jan 2030 07:40:10.788,24 Jan 2030 10:05:48.566,8737.778
239,24 Jan 2030 11:00:53.501,24 Jan 2030 12:12:46.058,4312.557
240,24 Jan 2030 13:07:21.973,24 Jan 2030 15:30:27.394,8585.421
241,24 Jan 2030 16:17:14.621,24 Jan 2030 17:31:00.676,4426.056
242,24 Jan 2030 18:27:05.639,24 Jan 2030 19:40:21.190,4395.551
243,24 Jan 2030 20:29:07.362,24 Jan 2030 22:51:01.111,8513.749
244,24 Jan 2030 23:45:09.997,25 Jan 2030 00:57:06.018,4316.020
245,25 Jan 2030 01:52:28.314,25 Jan 2030 03:18:12.123,5143.809
246,25 Jan 2030 03:24:57.643,25 Jan 2030 04:20:54.950,3357.307
247,25 Jan 2030 05:00:03.680,25 Jan 2030 06:15:42.975,4539.295
248,25 Jan 2030 07:11:39.626,25 Jan 2030 08:24:07.053,4347.427
249,25 Jan 2030 09:15:57.776,25 Jan 2030 11:36:37.570,8439.795
250,25 Jan 2030 12:29:16.957,25 Jan 2030 13:41:32.189,4335.231
251,25 Jan 2030 14:37:22.260,25 Jan 2030 15:54:13.606,4611.346
252,25 Jan 2030 16:28:30.353,25 Jan 2030 17:18:00.078,2969.725
253,25 Jan 2030 17:40:29.491,25 Jan 2030 19:00:32.701,4803.210
254,25 Jan 2030 19:56:07.924,25 Jan 2030 21:08:09.806,4321.882
255,25 Jan 2030 22:01:49.359,26 Jan 2030 00:22:58.236,8468.878
256,26 Jan 2030 01:13:09.570,26 Jan 2030 02:26:03.832,4374.262
257,26 Jan 2030 03:22:07.520,26 Jan 2030 04:36:30.561,4463.042
258,26 Jan 2030 05:20:58.119,26 Jan 2030 07:45:32.655,8674.536
259,26 Jan 2030 08:40:30.060,26 Jan 2030 09:52:23.170,4313.110
260,26 Jan 2030 10:47:10.374,26 Jan 2030 13:10:50.707,8620.333
261,26 Jan 2030 13:56:37.255,26 Jan 2030 15:10:40.923,4443.667
262,26 Jan 2030 16:06:46.047,26 Jan 2030 17:19:51.901,4385.854
263,26 Jan 2030 18:09:22.295,26 Jan 2030 20:30:48.244,8485.949
264,26 Jan 2030 21:24:44.713,26 Jan 2030 22:36:44.093,4319.380
265,26 Jan 2030 23:32:13.631,27 Jan 2030 00:54:22.591,4928.961
266,27 Jan 2030 01:10:32.038,27 Jan 2030 02:02:09.649,3097.611
267,27 Jan 2030 02:39:11.139,27 Jan 2030 03:55:24.170,4573.031
268,27 Jan 2030 04:51:18.717,27 Jan 2030 06:03:41.121,4342.405
269,27 Jan 2030 06:55:57.629,27 Jan 2030 09:16:30.256,8432.627
270,27 Jan 2030 10:08:49.119,27 Jan 2030 11:21:11.033,4341.914
271,27 Jan 2030 12:17:05.417,27 Jan 2030 13:33:22.577,4577.160
272,27 Jan 2030 14:10:10.346,27 Jan 2030 15:01:30.778,3080.432
273,27 Jan 2030 15:18:18.123,27 Jan 2030 16:40:15.185,4917.062
274,27 Jan 2030 17:35:45.659,27 Jan 2030 18:47:45.804,4320.145
275,27 Jan 2030 19:41:41.471,27 Jan 2030 22:03:02.270,8480.800
276,27 Jan 2030 22:52:37.697,28 Jan 2030 00:05:43.402,4385.706
277,28 Jan 2030 01:01:49.035,28 Jan 2030 02:15:55.867,4446.833
278,28 Jan 2030 03:01:37.332,28 Jan 2030 05:25:17.136,8619.804
279,28 Jan 2030 06:20:06.266,28 Jan 2030 07:32:00.429,4314.163
280,28 Jan 2030 08:26:58.033,28 Jan 2030 10:51:20.520,8662.487

