dtn_data/3_1_1/3to8.csv

"Access","Start Time (UTCG)","Stop Time (UTCG)","Duration (sec)"
1,1 Jan 2030 04:26:08.075,1 Jan 2030 05:39:29.521,4401.446
2,1 Jan 2030 06:35:24.306,1 Jan 2030 07:48:23.733,4379.428
3,1 Jan 2030 08:36:36.690,1 Jan 2030 10:59:45.658,8588.969
4,1 Jan 2030 11:53:43.827,1 Jan 2030 13:05:25.643,4301.816
5,1 Jan 2030 14:00:34.460,1 Jan 2030 15:24:36.154,5041.694
6,1 Jan 2030 15:33:19.384,1 Jan 2030 16:29:49.129,3389.745
7,1 Jan 2030 17:09:13.213,1 Jan 2030 18:24:15.288,4502.075
8,1 Jan 2030 19:20:02.079,1 Jan 2030 20:32:15.449,4333.369
9,1 Jan 2030 21:23:41.215,1 Jan 2030 23:45:27.902,8506.686
10,2 Jan 2030 00:37:56.026,2 Jan 2030 01:49:55.120,4319.094
11,2 Jan 2030 02:45:33.374,2 Jan 2030 04:01:56.518,4583.143
12,2 Jan 2030 04:35:33.424,2 Jan 2030 05:25:51.694,3018.270
13,2 Jan 2030 05:50:27.206,2 Jan 2030 07:09:08.789,4721.582
14,2 Jan 2030 08:04:34.160,2 Jan 2030 09:16:22.760,4308.600
15,2 Jan 2030 10:09:42.978,2 Jan 2030 12:31:54.960,8531.982
16,2 Jan 2030 13:21:55.444,2 Jan 2030 14:34:29.984,4354.540
17,2 Jan 2030 15:30:22.947,2 Jan 2030 16:44:26.804,4443.856
18,2 Jan 2030 17:28:11.952,2 Jan 2030 19:54:13.038,8761.086
19,2 Jan 2030 20:49:00.326,2 Jan 2030 22:00:39.990,4299.663
20,2 Jan 2030 22:55:11.532,3 Jan 2030 01:19:51.458,8679.925
21,3 Jan 2030 02:05:33.225,3 Jan 2030 03:19:10.373,4417.148
22,3 Jan 2030 04:15:05.411,3 Jan 2030 05:27:55.840,4370.430
23,3 Jan 2030 06:16:53.852,3 Jan 2030 08:39:33.631,8559.779
24,3 Jan 2030 09:33:19.504,3 Jan 2030 10:45:04.362,4304.857
25,3 Jan 2030 11:40:20.662,3 Jan 2030 13:01:34.805,4874.142
26,3 Jan 2030 13:18:00.246,3 Jan 2030 14:10:57.351,3177.106
27,3 Jan 2030 14:48:25.935,3 Jan 2030 16:03:57.096,4531.160
28,3 Jan 2030 16:59:41.864,3 Jan 2030 18:11:50.555,4328.691
29,3 Jan 2030 19:03:42.829,3 Jan 2030 21:25:21.506,8498.677
30,3 Jan 2030 22:17:29.399,3 Jan 2030 23:29:34.569,4325.170
31,4 Jan 2030 00:25:17.318,4 Jan 2030 01:41:09.353,4552.035
32,4 Jan 2030 02:17:10.955,4 Jan 2030 03:08:43.056,3092.100
33,4 Jan 2030 03:28:47.255,4 Jan 2030 04:48:51.952,4804.697
34,4 Jan 2030 05:44:12.648,4 Jan 2030 06:55:59.598,4306.950
35,4 Jan 2030 07:49:36.440,4 Jan 2030 10:11:59.683,8543.243
36,4 Jan 2030 11:01:25.296,4 Jan 2030 12:14:10.148,4364.852
37,4 Jan 2030 13:10:05.176,4 Jan 2030 14:23:54.100,4428.924
38,4 Jan 2030 15:08:53.335,4 Jan 2030 17:33:58.260,8704.925
39,4 Jan 2030 18:28:37.358,4 Jan 2030 19:40:17.951,4300.593
40,4 Jan 2030 20:35:00.249,4 Jan 2030 23:00:20.173,8719.924
41,4 Jan 2030 23:44:56.694,5 Jan 2030 00:58:51.322,4434.629
42,5 Jan 2030 01:54:46.219,5 Jan 2030 03:07:28.545,4362.326
43,5 Jan 2030 03:57:07.260,5 Jan 2030 06:19:22.301,8535.041
44,5 Jan 2030 07:12:54.753,5 Jan 2030 08:24:43.176,4308.423
45,5 Jan 2030 09:20:06.351,5 Jan 2030 10:39:46.123,4779.772
46,5 Jan 2030 11:01:20.931,5 Jan 2030 11:52:18.358,3057.427
47,5 Jan 2030 12:27:34.185,5 Jan 2030 13:43:39.065,4564.880
48,5 Jan 2030 14:39:21.371,5 Jan 2030 15:51:25.961,4324.590
49,5 Jan 2030 16:43:42.507,5 Jan 2030 19:05:16.474,8493.967
50,5 Jan 2030 19:57:02.167,5 Jan 2030 21:09:14.097,4331.930
51,5 Jan 2030 22:05:00.867,5 Jan 2030 23:20:26.005,4525.138
52,5 Jan 2030 23:58:35.812,6 Jan 2030 00:52:26.127,3230.315
53,6 Jan 2030 01:06:25.092,6 Jan 2030 02:28:35.349,4930.258
54,6 Jan 2030 03:23:50.827,6 Jan 2030 04:35:36.603,4305.776
55,6 Jan 2030 05:29:28.783,6 Jan 2030 07:52:07.360,8558.578
56,6 Jan 2030 08:40:54.142,6 Jan 2030 09:53:50.392,4376.250
57,6 Jan 2030 10:49:47.091,6 Jan 2030 12:03:22.572,4415.481
58,6 Jan 2030 12:49:28.004,6 Jan 2030 15:13:43.905,8655.901
59,6 Jan 2030 16:08:14.043,6 Jan 2030 17:19:56.036,4301.993
60,6 Jan 2030 18:14:48.269,6 Jan 2030 20:40:55.664,8767.395
61,6 Jan 2030 21:24:18.189,6 Jan 2030 22:38:32.389,4454.200
62,6 Jan 2030 23:34:26.737,7 Jan 2030 00:47:01.762,4355.025
63,7 Jan 2030 01:37:17.353,7 Jan 2030 03:59:11.743,8514.390
64,7 Jan 2030 04:52:29.534,7 Jan 2030 06:04:22.067,4312.533
65,7 Jan 2030 06:59:51.544,7 Jan 2030 08:18:24.010,4712.466
66,7 Jan 2030 08:44:06.750,7 Jan 2030 09:33:54.241,2987.490
67,7 Jan 2030 10:06:36.631,7 Jan 2030 11:23:21.192,4604.561
68,7 Jan 2030 12:19:00.597,7 Jan 2030 13:31:01.649,4321.052
69,7 Jan 2030 14:23:40.434,7 Jan 2030 16:45:13.003,8492.569
70,7 Jan 2030 17:36:34.263,7 Jan 2030 18:48:53.710,4339.447
71,7 Jan 2030 19:44:44.049,7 Jan 2030 20:59:45.636,4501.587
72,7 Jan 2030 21:39:49.159,8 Jan 2030 00:08:19.025,8909.866
73,8 Jan 2030 01:03:28.698,8 Jan 2030 02:15:13.773,4305.075
74,8 Jan 2030 03:09:20.110,8 Jan 2030 05:32:18.481,8578.370
75,8 Jan 2030 06:20:21.879,8 Jan 2030 07:33:30.720,4388.841
76,8 Jan 2030 08:29:28.684,8 Jan 2030 09:42:52.063,4403.380
77,8 Jan 2030 10:29:56.719,8 Jan 2030 12:53:30.012,8613.293
78,8 Jan 2030 13:47:50.350,8 Jan 2030 14:59:34.221,4303.871
79,8 Jan 2030 15:54:35.625,8 Jan 2030 18:21:39.092,8823.467
80,8 Jan 2030 19:03:37.347,8 Jan 2030 20:18:13.569,4476.223
81,8 Jan 2030 21:14:06.976,8 Jan 2030 22:26:35.453,4348.477
82,8 Jan 2030 23:17:24.497,9 Jan 2030 01:39:02.062,8497.565
83,9 Jan 2030 02:32:03.832,9 Jan 2030 03:44:01.051,4317.219
84,9 Jan 2030 04:39:36.268,9 Jan 2030 05:57:16.424,4660.156
85,9 Jan 2030 06:26:29.090,9 Jan 2030 07:15:47.682,2958.592
86,9 Jan 2030 07:45:31.202,9 Jan 2030 09:03:03.499,4652.297
87,9 Jan 2030 09:58:39.527,9 Jan 2030 11:10:37.577,4318.050
88,9 Jan 2030 12:03:36.782,9 Jan 2030 14:25:11.326,8494.545
89,9 Jan 2030 15:16:05.624,9 Jan 2030 16:28:33.393,4347.769
90,9 Jan 2030 17:24:26.862,9 Jan 2030 18:39:07.668,4480.806
91,9 Jan 2030 19:20:52.090,9 Jan 2030 21:48:02.986,8830.895
92,9 Jan 2030 22:43:06.256,9 Jan 2030 23:54:51.098,4304.843
93,10 Jan 2030 00:49:10.509,10 Jan 2030 03:12:33.616,8603.107
94,10 Jan 2030 03:59:48.342,10 Jan 2030 05:13:11.150,4402.808
95,10 Jan 2030 06:09:09.974,10 Jan 2030 07:22:22.420,4392.446
96,10 Jan 2030 08:10:20.181,10 Jan 2030 10:33:16.637,8576.456
97,10 Jan 2030 11:27:26.271,10 Jan 2030 12:39:12.511,4306.240
98,10 Jan 2030 13:34:22.369,10 Jan 2030 16:02:31.787,8889.418
99,10 Jan 2030 16:42:53.712,10 Jan 2030 17:57:54.875,4501.163
100,10 Jan 2030 18:53:46.920,10 Jan 2030 20:06:09.554,4342.634
101,10 Jan 2030 20:57:29.021,10 Jan 2030 23:18:53.374,8484.352
102,11 Jan 2030 00:11:37.595,11 Jan 2030 01:23:40.111,4322.516
103,11 Jan 2030 02:19:20.557,11 Jan 2030 03:36:18.142,4617.585
104,11 Jan 2030 04:08:32.744,11 Jan 2030 04:58:02.554,2969.810
105,11 Jan 2030 05:24:14.448,11 Jan 2030 06:42:46.008,4711.560
106,11 Jan 2030 07:38:18.172,11 Jan 2030 08:50:13.743,4315.571
107,11 Jan 2030 09:43:31.716,11 Jan 2030 12:05:11.714,8499.998
108,11 Jan 2030 12:55:36.190,11 Jan 2030 14:08:13.166,4356.976
109,11 Jan 2030 15:04:09.327,11 Jan 2030 16:18:31.664,4462.337
110,11 Jan 2030 17:01:45.647,11 Jan 2030 19:27:47.275,8761.629
111,11 Jan 2030 20:22:43.474,11 Jan 2030 21:34:28.555,4305.081
112,11 Jan 2030 22:29:00.037,12 Jan 2030 00:52:53.451,8633.413
113,12 Jan 2030 01:39:13.370,12 Jan 2030 02:52:51.669,4418.299
114,12 Jan 2030 03:48:50.966,12 Jan 2030 05:01:53.548,4382.582
115,12 Jan 2030 05:50:39.010,12 Jan 2030 08:13:03.847,8544.838
116,12 Jan 2030 09:07:01.787,12 Jan 2030 10:18:50.904,4309.118
117,12 Jan 2030 11:14:08.544,12 Jan 2030 12:37:18.156,4989.612
118,12 Jan 2030 12:49:14.379,12 Jan 2030 13:43:35.297,3260.918
119,12 Jan 2030 14:22:06.643,12 Jan 2030 15:37:36.325,4529.681
120,12 Jan 2030 16:33:26.582,12 Jan 2030 17:45:44.025,4337.443
121,12 Jan 2030 18:37:31.221,12 Jan 2030 20:58:45.804,8474.583
122,12 Jan 2030 21:51:10.799,12 Jan 2030 23:03:19.250,4328.451
123,12 Jan 2030 23:59:04.419,13 Jan 2030 01:15:26.334,4581.915
124,13 Jan 2030 01:50:20.320,13 Jan 2030 02:40:45.617,3025.297
125,13 Jan 2030 03:02:39.792,13 Jan 2030 04:22:28.721,4788.929
126,13 Jan 2030 05:17:56.514,13 Jan 2030 06:29:50.112,4313.598
127,13 Jan 2030 07:23:25.350,13 Jan 2030 09:45:14.495,8509.145
128,13 Jan 2030 10:35:05.858,13 Jan 2030 11:47:53.017,4367.159
129,13 Jan 2030 12:43:51.460,13 Jan 2030 13:57:57.283,4445.823
130,13 Jan 2030 14:42:30.830,13 Jan 2030 17:07:31.926,8701.096
131,13 Jan 2030 18:02:20.359,13 Jan 2030 19:14:06.152,4305.792
132,13 Jan 2030 20:08:48.781,13 Jan 2030 22:33:18.816,8670.036
133,13 Jan 2030 23:18:36.732,14 Jan 2030 00:32:32.296,4435.564
134,14 Jan 2030 01:28:31.653,14 Jan 2030 02:41:25.338,4373.685
135,14 Jan 2030 03:30:53.749,14 Jan 2030 05:52:51.700,8517.951
136,14 Jan 2030 06:46:36.859,14 Jan 2030 07:58:29.382,4312.523
137,14 Jan 2030 08:53:54.175,14 Jan 2030 10:14:47.402,4853.227
138,14 Jan 2030 10:33:23.934,14 Jan 2030 11:24:51.427,3087.494
139,14 Jan 2030 12:01:15.295,14 Jan 2030 13:17:17.912,4562.617
140,14 Jan 2030 14:13:05.961,14 Jan 2030 15:25:18.840,4332.880
141,14 Jan 2030 16:17:31.342,14 Jan 2030 18:38:39.517,8468.175
142,14 Jan 2030 19:30:43.385,14 Jan 2030 20:42:58.478,4335.093
143,14 Jan 2030 21:38:47.886,14 Jan 2030 22:54:39.304,4551.418
144,14 Jan 2030 23:31:53.576,15 Jan 2030 00:24:12.671,3139.095
145,15 Jan 2030 00:40:31.352,15 Jan 2030 02:02:11.672,4900.320
146,15 Jan 2030 02:57:34.548,15 Jan 2030 04:09:26.671,4312.123
147,15 Jan 2030 05:03:17.816,15 Jan 2030 07:25:20.053,8522.236
148,15 Jan 2030 08:14:34.546,15 Jan 2030 09:27:32.948,4378.402
149,15 Jan 2030 10:23:33.256,15 Jan 2030 11:37:24.284,4431.029
150,15 Jan 2030 12:23:08.591,15 Jan 2030 14:47:16.967,8648.377
151,15 Jan 2030 15:41:56.884,15 Jan 2030 16:53:43.866,4306.982
152,15 Jan 2030 17:48:36.782,15 Jan 2030 20:13:50.682,8713.900
153,15 Jan 2030 20:57:58.155,15 Jan 2030 22:12:13.027,4454.872
154,15 Jan 2030 23:08:12.055,16 Jan 2030 00:20:57.719,4365.664
155,16 Jan 2030 01:11:04.887,16 Jan 2030 03:32:40.288,8495.401
156,16 Jan 2030 04:26:11.480,16 Jan 2030 05:38:07.960,4316.480
157,16 Jan 2030 06:33:39.294,16 Jan 2030 07:53:06.769,4767.476
158,16 Jan 2030 08:16:34.944,16 Jan 2030 09:06:22.298,2987.354
159,16 Jan 2030 09:40:18.419,16 Jan 2030 10:56:59.662,4601.243
160,16 Jan 2030 11:52:45.043,16 Jan 2030 13:04:53.952,4328.909
161,16 Jan 2030 13:57:29.599,16 Jan 2030 16:18:34.689,8465.091
162,16 Jan 2030 17:10:15.303,16 Jan 2030 18:22:37.776,4342.474
163,16 Jan 2030 19:18:30.960,16 Jan 2030 20:33:55.932,4524.972
164,16 Jan 2030 21:13:13.926,16 Jan 2030 22:09:38.328,3384.402
165,16 Jan 2030 22:16:34.181,16 Jan 2030 23:41:54.875,5120.694
166,17 Jan 2030 00:37:12.277,17 Jan 2030 01:49:03.415,4311.138
167,17 Jan 2030 02:43:09.217,17 Jan 2030 05:05:28.845,8539.628
168,17 Jan 2030 05:54:02.116,17 Jan 2030 07:07:12.976,4390.860
169,17 Jan 2030 08:03:14.735,17 Jan 2030 09:16:52.447,4417.712
170,17 Jan 2030 10:03:39.794,17 Jan 2030 12:27:02.448,8602.655
171,17 Jan 2030 13:21:33.032,17 Jan 2030 14:33:21.695,4308.663
172,17 Jan 2030 15:28:24.100,17 Jan 2030 17:54:30.199,8766.099
173,17 Jan 2030 18:37:17.304,17 Jan 2030 19:51:53.872,4476.568
174,17 Jan 2030 20:47:52.158,17 Jan 2030 22:00:30.630,4358.471
175,17 Jan 2030 22:51:12.848,18 Jan 2030 01:12:29.692,8476.844
176,18 Jan 2030 02:05:45.600,18 Jan 2030 03:17:46.620,4321.020
177,18 Jan 2030 04:13:23.938,18 Jan 2030 05:31:48.193,4704.255
178,18 Jan 2030 05:59:14.671,18 Jan 2030 06:48:10.557,2935.886
179,18 Jan 2030 07:19:14.156,18 Jan 2030 08:36:41.589,4647.433
180,18 Jan 2030 09:32:23.842,18 Jan 2030 10:44:29.349,4325.507
181,18 Jan 2030 11:37:26.193,18 Jan 2030 13:58:31.549,8465.356
182,18 Jan 2030 14:49:46.500,18 Jan 2030 16:02:17.165,4350.665
183,18 Jan 2030 16:58:13.663,18 Jan 2030 18:13:15.457,4501.793
184,18 Jan 2030 18:54:22.643,18 Jan 2030 21:21:38.353,8835.710
185,18 Jan 2030 22:16:49.676,18 Jan 2030 23:28:40.315,4310.639
186,19 Jan 2030 00:22:59.632,19 Jan 2030 02:45:41.440,8561.807
187,19 Jan 2030 03:33:28.440,19 Jan 2030 04:46:53.089,4404.649
188,19 Jan 2030 05:42:55.906,19 Jan 2030 06:56:21.624,4405.719
189,19 Jan 2030 07:44:05.235,19 Jan 2030 10:06:48.426,8563.191
190,19 Jan 2030 11:01:08.798,19 Jan 2030 12:12:59.641,4310.843
191,19 Jan 2030 13:08:10.789,19 Jan 2030 15:35:18.720,8827.932
192,19 Jan 2030 16:16:33.715,19 Jan 2030 17:31:34.848,4501.133
193,19 Jan 2030 18:27:31.970,19 Jan 2030 19:40:03.999,4352.029
194,19 Jan 2030 20:31:17.996,19 Jan 2030 22:52:20.026,8462.030
195,19 Jan 2030 23:45:19.199,20 Jan 2030 00:57:25.364,4326.165
196,20 Jan 2030 01:53:08.122,20 Jan 2030 03:10:42.446,4654.325
197,20 Jan 2030 03:41:31.733,20 Jan 2030 04:30:19.840,2928.108
198,20 Jan 2030 04:57:59.447,20 Jan 2030 06:16:23.695,4704.248
199,20 Jan 2030 07:12:02.336,20 Jan 2030 08:24:04.992,4322.656
200,20 Jan 2030 09:17:21.280,20 Jan 2030 11:38:30.342,8469.062
201,20 Jan 2030 12:29:16.888,20 Jan 2030 13:41:56.632,4359.743
202,20 Jan 2030 14:37:56.016,20 Jan 2030 15:52:37.308,4481.292
203,20 Jan 2030 16:35:20.924,20 Jan 2030 19:01:22.148,8761.224
204,20 Jan 2030 19:56:26.753,20 Jan 2030 21:08:17.379,4310.625
205,20 Jan 2030 22:02:49.158,21 Jan 2030 00:25:58.500,8589.342
206,21 Jan 2030 01:12:53.342,21 Jan 2030 02:26:33.304,4419.962
207,21 Jan 2030 03:22:36.760,21 Jan 2030 04:35:51.669,4394.909
208,21 Jan 2030 05:24:25.615,21 Jan 2030 07:46:34.943,8529.328
209,21 Jan 2030 08:40:44.144,21 Jan 2030 09:52:37.684,4313.540
210,21 Jan 2030 10:47:56.879,21 Jan 2030 12:14:44.764,5207.885
211,21 Jan 2030 12:18:47.735,21 Jan 2030 13:16:17.840,3450.105
212,21 Jan 2030 13:55:46.811,21 Jan 2030 15:11:15.948,4529.137
213,21 Jan 2030 16:07:11.499,21 Jan 2030 17:19:37.796,4346.297
214,21 Jan 2030 18:11:20.664,21 Jan 2030 20:32:11.423,8450.759
215,21 Jan 2030 21:24:52.236,21 Jan 2030 22:37:04.202,4331.965
216,21 Jan 2030 23:32:51.880,22 Jan 2030 00:49:45.170,4613.290
217,22 Jan 2030 01:23:30.139,22 Jan 2030 02:12:56.048,2965.910
218,22 Jan 2030 02:36:28.703,22 Jan 2030 03:56:06.012,4777.309
219,22 Jan 2030 04:51:40.534,22 Jan 2030 06:03:40.869,4320.335
220,22 Jan 2030 06:57:15.012,22 Jan 2030 09:18:31.386,8476.374
221,22 Jan 2030 10:08:46.403,22 Jan 2030 11:21:36.178,4369.775
222,22 Jan 2030 12:17:38.014,22 Jan 2030 13:32:01.087,4463.073
223,22 Jan 2030 14:16:09.929,22 Jan 2030 16:41:06.275,8696.346
224,22 Jan 2030 17:36:03.478,22 Jan 2030 18:47:54.581,4311.103
225,22 Jan 2030 19:42:37.851,22 Jan 2030 22:06:20.827,8622.976
226,22 Jan 2030 22:52:16.597,23 Jan 2030 00:06:13.617,4437.020
227,23 Jan 2030 01:02:17.322,23 Jan 2030 02:15:22.473,4385.151
228,23 Jan 2030 03:04:41.557,23 Jan 2030 05:26:22.079,8500.522
229,23 Jan 2030 06:20:19.066,23 Jan 2030 07:32:15.838,4316.771
230,23 Jan 2030 08:27:42.407,23 Jan 2030 09:50:05.979,4943.571
231,23 Jan 2030 10:05:11.950,23 Jan 2030 10:57:29.400,3137.450
232,23 Jan 2030 11:34:55.765,23 Jan 2030 12:50:57.196,4561.431
233,23 Jan 2030 13:46:50.730,23 Jan 2030 14:59:11.962,4341.232
234,23 Jan 2030 15:51:21.117,23 Jan 2030 18:12:04.014,8442.898
235,23 Jan 2030 19:04:24.654,23 Jan 2030 20:16:43.114,4338.460
236,23 Jan 2030 21:12:35.219,23 Jan 2030 22:28:53.913,4578.694
237,23 Jan 2030 23:05:12.282,23 Jan 2030 23:56:11.669,3059.387
238,24 Jan 2030 00:14:29.461,24 Jan 2030 01:35:48.548,4879.087
239,24 Jan 2030 02:31:18.430,24 Jan 2030 03:43:16.965,4318.534
240,24 Jan 2030 04:37:07.521,24 Jan 2030 06:58:35.050,8487.528
241,24 Jan 2030 07:48:14.929,24 Jan 2030 09:01:15.820,4380.891
242,24 Jan 2030 09:57:19.682,24 Jan 2030 11:11:26.462,4446.780
243,24 Jan 2030 11:56:50.735,24 Jan 2030 14:20:50.788,8640.053
244,24 Jan 2030 15:15:39.850,24 Jan 2030 16:27:31.913,4312.064
245,24 Jan 2030 17:22:25.783,24 Jan 2030 19:46:49.383,8663.599
246,24 Jan 2030 20:31:37.959,24 Jan 2030 21:45:54.035,4456.076
247,24 Jan 2030 22:41:57.581,24 Jan 2030 23:54:53.955,4376.374
248,25 Jan 2030 00:44:53.618,25 Jan 2030 03:06:09.898,8476.279
249,25 Jan 2030 03:59:53.522,25 Jan 2030 05:11:54.084,4320.562
250,25 Jan 2030 06:07:27.420,25 Jan 2030 07:27:56.956,4829.535
251,25 Jan 2030 07:48:57.885,25 Jan 2030 08:38:55.585,2997.700
252,25 Jan 2030 09:13:59.439,25 Jan 2030 10:30:38.603,4599.164
253,25 Jan 2030 11:26:29.678,25 Jan 2030 12:38:46.477,4336.799
254,25 Jan 2030 13:31:19.607,25 Jan 2030 15:51:57.991,8438.383
255,25 Jan 2030 16:43:56.418,25 Jan 2030 17:56:22.121,4345.703
256,25 Jan 2030 18:52:18.163,25 Jan 2030 20:08:07.165,4549.002
257,25 Jan 2030 20:46:39.921,25 Jan 2030 21:40:50.578,3250.658
258,25 Jan 2030 21:51:17.573,25 Jan 2030 23:15:31.325,5053.752
259,26 Jan 2030 00:10:56.004,26 Jan 2030 01:22:53.248,4317.244
260,26 Jan 2030 02:16:58.908,26 Jan 2030 04:38:41.778,8502.870
261,26 Jan 2030 05:27:42.359,26 Jan 2030 06:40:55.545,4393.187
262,26 Jan 2030 07:37:01.030,26 Jan 2030 08:50:53.194,4432.165
263,26 Jan 2030 09:37:24.331,26 Jan 2030 12:00:35.715,8591.384
264,26 Jan 2030 12:55:15.854,26 Jan 2030 14:07:09.383,4313.528
265,26 Jan 2030 15:02:13.015,26 Jan 2030 17:27:25.317,8712.302
266,26 Jan 2030 18:10:57.077,26 Jan 2030 19:25:34.577,4477.500
267,26 Jan 2030 20:21:37.541,26 Jan 2030 21:34:26.021,4368.480
268,26 Jan 2030 22:25:02.271,27 Jan 2030 00:45:58.498,8456.227
269,27 Jan 2030 01:39:27.488,27 Jan 2030 02:51:32.422,4324.934
270,27 Jan 2030 03:47:11.935,27 Jan 2030 05:06:23.950,4752.016
271,27 Jan 2030 05:31:58.317,27 Jan 2030 06:20:39.035,2920.717
272,27 Jan 2030 06:52:56.103,27 Jan 2030 08:10:20.169,4644.066
273,27 Jan 2030 09:06:08.325,27 Jan 2030 10:18:21.299,4332.974
274,27 Jan 2030 11:11:16.338,27 Jan 2030 13:31:53.552,8437.214
275,27 Jan 2030 14:23:27.449,27 Jan 2030 15:36:01.204,4353.755
276,27 Jan 2030 16:32:00.737,27 Jan 2030 17:47:23.898,4523.161
277,27 Jan 2030 18:27:54.573,27 Jan 2030 20:55:14.381,8839.808
278,27 Jan 2030 21:50:33.265,27 Jan 2030 23:02:29.724,4316.458
279,27 Jan 2030 23:56:49.285,28 Jan 2030 02:18:52.100,8522.815
280,28 Jan 2030 03:07:08.556,28 Jan 2030 04:20:35.370,4406.814
281,28 Jan 2030 05:16:42.050,28 Jan 2030 06:30:21.089,4419.038
282,28 Jan 2030 07:17:51.630,28 Jan 2030 09:40:21.106,8549.476
283,28 Jan 2030 10:34:51.461,28 Jan 2030 11:00:00.000,1508.539

