dtn_data/3_1_1/4to7.csv

"Access","Start Time (UTCG)","Stop Time (UTCG)","Duration (sec)"
1,1 Jan 2030 04:00:00.000,1 Jan 2030 04:57:39.792,3459.792
2,1 Jan 2030 05:52:58.052,1 Jan 2030 07:04:42.828,4304.776
3,1 Jan 2030 07:58:20.326,1 Jan 2030 10:20:55.195,8554.868
4,1 Jan 2030 11:10:11.736,1 Jan 2030 12:22:55.920,4364.184
5,1 Jan 2030 13:18:49.824,1 Jan 2030 14:32:33.224,4423.401
6,1 Jan 2030 15:17:41.209,1 Jan 2030 17:42:47.180,8705.971
7,1 Jan 2030 18:37:23.049,1 Jan 2030 19:49:01.954,4298.905
8,1 Jan 2030 20:43:44.220,1 Jan 2030 23:09:21.357,8737.137
9,1 Jan 2030 23:53:43.266,2 Jan 2030 01:07:37.741,4434.474
10,2 Jan 2030 02:03:31.124,2 Jan 2030 03:16:09.720,4358.596
11,2 Jan 2030 04:05:52.096,2 Jan 2030 06:28:12.695,8540.599
12,2 Jan 2030 07:21:40.719,2 Jan 2030 08:33:27.828,4307.109
13,2 Jan 2030 09:28:50.514,2 Jan 2030 10:48:08.541,4758.027
14,2 Jan 2030 11:10:37.640,2 Jan 2030 12:01:28.426,3050.786
15,2 Jan 2030 12:36:20.271,2 Jan 2030 13:52:26.198,4565.927
16,2 Jan 2030 14:48:06.550,2 Jan 2030 16:00:08.419,4321.869
17,2 Jan 2030 16:52:26.467,2 Jan 2030 19:14:09.099,8502.633
18,2 Jan 2030 20:05:48.415,2 Jan 2030 21:17:59.371,4330.956
19,2 Jan 2030 22:13:45.284,2 Jan 2030 23:29:01.925,4516.641
20,3 Jan 2030 00:07:30.112,3 Jan 2030 01:01:54.248,3264.136
21,3 Jan 2030 01:15:00.234,3 Jan 2030 02:37:23.360,4943.126
22,3 Jan 2030 03:32:36.286,3 Jan 2030 04:44:19.983,4303.697
23,3 Jan 2030 05:38:12.617,3 Jan 2030 08:01:03.633,8571.016
24,3 Jan 2030 08:49:40.648,3 Jan 2030 10:02:36.272,4375.623
25,3 Jan 2030 10:58:31.762,3 Jan 2030 12:12:02.156,4410.394
26,3 Jan 2030 12:58:14.844,3 Jan 2030 15:22:33.031,8658.187
27,3 Jan 2030 16:16:59.778,3 Jan 2030 17:28:40.148,4300.370
28,3 Jan 2030 18:23:32.223,3 Jan 2030 20:49:58.137,8785.914
29,3 Jan 2030 21:33:04.783,3 Jan 2030 22:47:18.914,4454.131
30,3 Jan 2030 23:43:11.687,4 Jan 2030 00:55:43.209,4351.522
31,4 Jan 2030 01:46:01.810,4 Jan 2030 04:08:02.451,8520.641
32,4 Jan 2030 05:01:15.566,4 Jan 2030 06:13:06.835,4311.269
33,4 Jan 2030 07:08:35.726,4 Jan 2030 08:26:51.233,4695.507
34,4 Jan 2030 08:53:16.399,4 Jan 2030 09:43:06.057,2989.658
35,4 Jan 2030 10:15:22.444,4 Jan 2030 11:32:08.465,4606.021
36,4 Jan 2030 12:27:45.816,4 Jan 2030 13:39:44.279,4318.463
37,4 Jan 2030 14:32:24.264,4 Jan 2030 16:54:06.112,8501.849
38,4 Jan 2030 17:45:20.571,4 Jan 2030 18:57:39.077,4338.506
39,4 Jan 2030 19:53:28.483,4 Jan 2030 21:08:22.479,4493.996
40,4 Jan 2030 21:48:41.195,5 Jan 2030 00:17:07.193,8905.998
41,5 Jan 2030 01:12:14.203,5 Jan 2030 02:23:57.292,4303.088
42,5 Jan 2030 03:18:03.902,5 Jan 2030 05:41:15.576,8591.674
43,5 Jan 2030 06:29:08.431,5 Jan 2030 07:42:16.710,4388.280
44,5 Jan 2030 08:38:13.398,5 Jan 2030 09:51:32.055,4398.656
45,5 Jan 2030 10:38:42.723,5 Jan 2030 13:02:19.367,8616.644
46,5 Jan 2030 13:56:36.146,5 Jan 2030 15:08:18.457,4302.310
47,5 Jan 2030 16:03:19.583,5 Jan 2030 18:30:42.941,8843.359
48,5 Jan 2030 19:12:23.947,5 Jan 2030 20:27:00.212,4476.265
49,5 Jan 2030 21:22:51.958,5 Jan 2030 22:35:17.138,4345.180
50,5 Jan 2030 23:26:08.655,6 Jan 2030 01:47:53.098,8504.443
51,6 Jan 2030 02:40:49.913,6 Jan 2030 03:52:45.914,4316.001
52,6 Jan 2030 04:48:20.470,6 Jan 2030 06:05:46.731,4646.261
53,6 Jan 2030 06:35:33.515,6 Jan 2030 07:25:01.321,2967.806
54,6 Jan 2030 07:54:16.557,6 Jan 2030 09:11:50.910,4654.353
55,6 Jan 2030 10:07:24.799,6 Jan 2030 11:19:20.389,4315.589
56,6 Jan 2030 12:12:20.511,6 Jan 2030 14:34:04.966,8504.456
57,6 Jan 2030 15:24:52.001,6 Jan 2030 16:37:18.872,4346.871
58,6 Jan 2030 17:33:11.330,6 Jan 2030 18:47:45.281,4473.951
59,6 Jan 2030 19:29:42.231,6 Jan 2030 21:56:51.334,8829.103
60,6 Jan 2030 22:51:51.805,7 Jan 2030 00:03:34.742,4302.937
61,7 Jan 2030 00:57:54.271,7 Jan 2030 03:21:31.620,8617.349
62,7 Jan 2030 04:08:34.952,7 Jan 2030 05:21:57.237,4402.285
63,7 Jan 2030 06:17:54.725,7 Jan 2030 07:31:02.793,4388.068
64,7 Jan 2030 08:19:05.505,7 Jan 2030 10:42:06.224,8580.719
65,7 Jan 2030 11:36:12.118,7 Jan 2030 12:47:56.861,4304.743
66,7 Jan 2030 13:43:06.340,7 Jan 2030 16:11:37.093,8910.753
67,7 Jan 2030 16:51:40.279,7 Jan 2030 18:06:41.643,4501.364
68,7 Jan 2030 19:02:31.953,7 Jan 2030 20:14:51.469,4339.516
69,7 Jan 2030 21:06:12.950,7 Jan 2030 23:27:44.754,8491.804
70,8 Jan 2030 00:20:23.743,8 Jan 2030 01:32:25.085,4321.342
71,8 Jan 2030 02:28:04.781,8 Jan 2030 03:44:50.618,4605.837
72,8 Jan 2030 04:17:33.000,8 Jan 2030 05:07:18.204,2985.204
73,8 Jan 2030 05:32:58.998,8 Jan 2030 06:51:33.549,4714.551
74,8 Jan 2030 07:47:03.482,8 Jan 2030 08:58:56.709,4313.228
75,8 Jan 2030 09:52:15.366,8 Jan 2030 12:14:05.926,8510.561
76,8 Jan 2030 13:04:22.617,8 Jan 2030 14:16:58.739,4356.122
77,8 Jan 2030 15:12:53.834,8 Jan 2030 16:27:09.937,4456.103
78,8 Jan 2030 17:10:34.232,8 Jan 2030 19:36:35.801,8761.569
79,8 Jan 2030 20:31:29.084,8 Jan 2030 21:43:12.338,4303.255
80,8 Jan 2030 22:37:43.798,9 Jan 2030 01:01:52.453,8648.655
81,9 Jan 2030 01:48:00.020,9 Jan 2030 03:01:37.870,4417.850
82,9 Jan 2030 03:57:35.749,9 Jan 2030 05:10:34.252,4378.503
83,9 Jan 2030 05:59:23.787,9 Jan 2030 08:21:53.680,8549.893
84,9 Jan 2030 09:15:47.683,9 Jan 2030 10:27:35.357,4307.674
85,9 Jan 2030 11:22:52.525,9 Jan 2030 12:45:18.682,4946.157
86,9 Jan 2030 12:58:54.409,9 Jan 2030 13:52:42.140,3227.731
87,9 Jan 2030 14:30:53.155,9 Jan 2030 15:46:23.203,4530.048
88,9 Jan 2030 16:42:11.655,9 Jan 2030 17:54:26.165,4334.510
89,9 Jan 2030 18:46:14.963,9 Jan 2030 21:07:37.565,8482.602
90,9 Jan 2030 21:59:57.001,9 Jan 2030 23:12:04.326,4327.325
91,10 Jan 2030 00:07:48.680,10 Jan 2030 01:24:00.447,4571.767
92,10 Jan 2030 01:59:17.143,10 Jan 2030 02:50:03.841,3046.698
93,10 Jan 2030 03:11:22.757,10 Jan 2030 04:31:16.413,4793.656
94,10 Jan 2030 05:26:41.876,10 Jan 2030 06:38:33.242,4311.366
95,10 Jan 2030 07:32:08.958,10 Jan 2030 09:54:09.328,8520.370
96,10 Jan 2030 10:43:52.351,10 Jan 2030 11:56:38.695,4366.344
97,10 Jan 2030 12:52:35.996,10 Jan 2030 14:06:36.142,4440.146
98,10 Jan 2030 14:51:18.150,10 Jan 2030 17:16:20.628,8702.478
99,10 Jan 2030 18:11:06.011,10 Jan 2030 19:22:50.052,4304.041
100,10 Jan 2030 20:17:32.533,10 Jan 2030 22:42:18.900,8686.367
101,10 Jan 2030 23:27:23.413,11 Jan 2030 00:41:18.597,4435.184
102,11 Jan 2030 01:37:16.485,11 Jan 2030 02:50:06.360,4369.875
103,11 Jan 2030 03:39:38.093,11 Jan 2030 06:01:41.799,8523.706
104,11 Jan 2030 06:55:22.820,11 Jan 2030 08:07:13.954,4311.134
105,11 Jan 2030 09:02:38.183,11 Jan 2030 10:23:05.401,4827.218
106,11 Jan 2030 10:42:44.242,11 Jan 2030 11:33:59.859,3075.618
107,11 Jan 2030 12:10:01.680,11 Jan 2030 13:26:04.920,4563.240
108,11 Jan 2030 14:21:51.074,11 Jan 2030 15:34:01.176,4330.101
109,11 Jan 2030 16:26:14.948,11 Jan 2030 18:47:31.680,8476.731
110,11 Jan 2030 19:39:29.642,11 Jan 2030 20:51:43.651,4334.009
111,11 Jan 2030 21:47:32.171,11 Jan 2030 23:03:14.704,4542.533
112,11 Jan 2030 23:40:47.546,12 Jan 2030 00:33:35.572,3168.026
113,12 Jan 2030 00:49:10.395,12 Jan 2030 02:10:59.505,4909.109
114,12 Jan 2030 03:06:19.959,12 Jan 2030 04:18:09.955,4309.996
115,12 Jan 2030 05:12:01.389,12 Jan 2030 07:34:15.567,8534.178
116,12 Jan 2030 08:23:21.085,12 Jan 2030 09:36:18.732,4377.647
117,12 Jan 2030 10:32:17.840,12 Jan 2030 11:46:03.644,4425.805
118,12 Jan 2030 12:31:54.882,12 Jan 2030 14:56:05.869,8650.986
119,12 Jan 2030 15:50:42.592,12 Jan 2030 17:02:27.896,4305.304
120,12 Jan 2030 17:57:20.547,12 Jan 2030 20:22:51.934,8731.387
121,12 Jan 2030 21:06:44.867,12 Jan 2030 22:20:59.438,4454.571
122,12 Jan 2030 23:16:56.921,13 Jan 2030 00:29:39.027,4362.106
123,13 Jan 2030 01:19:48.899,13 Jan 2030 03:41:30.659,8501.760
124,13 Jan 2030 04:34:57.487,13 Jan 2030 05:46:52.631,4315.144
125,13 Jan 2030 06:42:23.331,13 Jan 2030 08:01:31.743,4748.413
126,13 Jan 2030 08:25:46.063,13 Jan 2030 09:15:32.363,2986.300
127,13 Jan 2030 09:49:04.600,13 Jan 2030 11:05:46.793,4602.193
128,13 Jan 2030 12:01:30.211,13 Jan 2030 13:13:36.490,4326.279
129,13 Jan 2030 14:06:13.106,13 Jan 2030 16:27:27.285,8474.179
130,13 Jan 2030 17:19:01.624,13 Jan 2030 18:31:23.060,4341.436
131,13 Jan 2030 19:27:15.284,13 Jan 2030 20:42:32.381,4517.097
132,13 Jan 2030 21:22:05.527,13 Jan 2030 22:19:30.614,3445.087
133,13 Jan 2030 22:24:44.349,13 Jan 2030 23:50:42.861,5158.513
134,14 Jan 2030 00:45:57.732,14 Jan 2030 01:57:46.838,4309.106
135,14 Jan 2030 02:51:52.772,14 Jan 2030 05:14:25.112,8552.340
136,14 Jan 2030 06:02:48.715,14 Jan 2030 07:15:58.853,4390.138
137,14 Jan 2030 08:11:59.361,14 Jan 2030 09:25:32.269,4412.908
138,14 Jan 2030 10:12:25.262,14 Jan 2030 12:35:51.552,8606.290
139,14 Jan 2030 13:30:18.794,14 Jan 2030 14:42:05.844,4307.051
140,14 Jan 2030 15:37:07.889,14 Jan 2030 18:03:32.719,8784.830
141,14 Jan 2030 18:46:04.015,14 Jan 2030 20:00:40.399,4476.385
142,14 Jan 2030 20:56:37.075,14 Jan 2030 22:09:12.200,4355.124
143,14 Jan 2030 22:59:56.601,15 Jan 2030 01:21:20.354,8483.753
144,15 Jan 2030 02:14:31.672,15 Jan 2030 03:26:31.403,4319.731
145,15 Jan 2030 04:22:08.004,15 Jan 2030 05:40:17.161,4689.157
146,15 Jan 2030 06:08:19.679,15 Jan 2030 06:57:22.306,2942.627
147,15 Jan 2030 07:27:59.976,15 Jan 2030 08:45:28.836,4648.860
148,15 Jan 2030 09:41:09.048,15 Jan 2030 10:53:12.063,4323.016
149,15 Jan 2030 11:46:09.628,15 Jan 2030 14:07:24.614,8474.986
150,15 Jan 2030 14:58:32.868,15 Jan 2030 16:11:02.542,4349.674
151,15 Jan 2030 17:06:58.033,15 Jan 2030 18:21:52.766,4494.733
152,15 Jan 2030 19:03:12.294,15 Jan 2030 21:30:26.499,8834.205
153,15 Jan 2030 22:25:35.190,15 Jan 2030 23:37:23.888,4308.698
154,16 Jan 2030 00:31:43.194,16 Jan 2030 02:54:38.523,8575.329
155,16 Jan 2030 03:42:15.083,16 Jan 2030 04:55:39.075,4403.991
156,16 Jan 2030 05:51:40.565,16 Jan 2030 07:05:01.845,4401.279
157,16 Jan 2030 07:52:50.053,16 Jan 2030 10:15:37.732,8567.679
158,16 Jan 2030 11:09:54.606,16 Jan 2030 12:21:43.903,4309.297
159,16 Jan 2030 13:16:54.597,16 Jan 2030 15:44:22.598,8848.001
160,16 Jan 2030 16:25:20.419,16 Jan 2030 17:40:21.476,4501.057
161,16 Jan 2030 18:36:16.932,16 Jan 2030 19:48:45.826,4348.894
162,16 Jan 2030 20:40:01.555,16 Jan 2030 23:01:11.006,8469.451
163,16 Jan 2030 23:54:05.321,17 Jan 2030 01:06:10.254,4324.933
164,17 Jan 2030 02:01:52.233,17 Jan 2030 03:19:14.067,4641.834
165,17 Jan 2030 03:50:32.114,17 Jan 2030 04:39:33.384,2941.270
166,17 Jan 2030 05:06:44.643,17 Jan 2030 06:25:11.078,4706.435
167,17 Jan 2030 07:20:47.599,17 Jan 2030 08:32:47.888,4320.289
168,17 Jan 2030 09:26:04.678,17 Jan 2030 11:47:23.918,8479.240
169,17 Jan 2030 12:38:03.321,17 Jan 2030 13:50:42.111,4358.791
170,17 Jan 2030 14:46:40.420,17 Jan 2030 16:01:15.362,4474.942
171,17 Jan 2030 16:44:08.998,17 Jan 2030 19:10:10.447,8761.448
172,17 Jan 2030 20:05:12.307,17 Jan 2030 21:17:01.079,4308.771
173,17 Jan 2030 22:11:32.723,18 Jan 2030 00:34:56.476,8603.753
174,18 Jan 2030 01:21:40.020,18 Jan 2030 02:35:19.383,4419.363
175,18 Jan 2030 03:31:21.474,18 Jan 2030 04:44:32.263,4390.789
176,18 Jan 2030 05:33:09.928,18 Jan 2030 07:55:24.475,8534.547
177,18 Jan 2030 08:49:30.014,18 Jan 2030 10:01:22.070,4312.055
178,18 Jan 2030 10:56:40.724,18 Jan 2030 12:21:47.200,5106.477
179,18 Jan 2030 12:29:25.050,18 Jan 2030 13:25:23.148,3358.097
180,18 Jan 2030 14:04:33.459,18 Jan 2030 15:20:02.696,4529.237
181,18 Jan 2030 16:15:56.503,18 Jan 2030 17:28:19.846,4343.344
182,18 Jan 2030 18:20:04.079,18 Jan 2030 20:41:02.730,8458.651
183,18 Jan 2030 21:33:38.409,18 Jan 2030 22:45:49.187,4330.778
184,18 Jan 2030 23:41:36.022,19 Jan 2030 00:58:18.707,4602.685
185,19 Jan 2030 01:32:26.821,19 Jan 2030 02:22:11.751,2984.930
186,19 Jan 2030 02:45:12.713,19 Jan 2030 04:04:53.517,4780.805
187,19 Jan 2030 05:00:25.843,19 Jan 2030 06:12:23.933,4318.089
188,19 Jan 2030 07:05:58.391,19 Jan 2030 09:27:25.521,8487.130
189,19 Jan 2030 10:17:32.879,19 Jan 2030 11:30:21.761,4368.882
190,19 Jan 2030 12:26:22.472,19 Jan 2030 13:40:39.767,4457.295
191,19 Jan 2030 14:24:56.729,19 Jan 2030 16:49:54.746,8698.018
192,19 Jan 2030 17:44:49.091,19 Jan 2030 18:56:38.416,4309.325
193,19 Jan 2030 19:51:21.440,19 Jan 2030 22:15:19.777,8638.337
194,19 Jan 2030 23:01:03.317,20 Jan 2030 00:14:59.799,4436.482
195,20 Jan 2030 01:11:02.072,20 Jan 2030 02:24:03.403,4381.330
196,20 Jan 2030 03:13:25.490,20 Jan 2030 05:35:11.838,8506.348
197,20 Jan 2030 06:29:04.979,20 Jan 2030 07:41:00.326,4315.347
198,20 Jan 2030 08:36:26.291,20 Jan 2030 09:58:17.323,4911.032
199,20 Jan 2030 10:14:38.171,20 Jan 2030 11:06:36.194,3118.023
200,20 Jan 2030 11:43:42.324,20 Jan 2030 12:59:44.054,4561.730
201,20 Jan 2030 13:55:35.790,20 Jan 2030 15:07:54.239,4338.449
202,20 Jan 2030 16:00:04.434,20 Jan 2030 18:20:55.683,8451.249
203,20 Jan 2030 19:13:10.889,20 Jan 2030 20:25:28.210,4337.322
204,20 Jan 2030 21:21:19.407,20 Jan 2030 22:37:28.925,4569.518
205,20 Jan 2030 23:14:05.949,21 Jan 2030 00:05:30.822,3084.873
206,21 Jan 2030 00:23:10.756,21 Jan 2030 01:44:36.190,4885.434
207,21 Jan 2030 02:40:03.781,21 Jan 2030 03:52:00.179,4316.398
208,21 Jan 2030 04:45:50.888,21 Jan 2030 07:07:29.791,8498.903
209,21 Jan 2030 07:57:01.461,21 Jan 2030 09:10:01.492,4380.031
210,21 Jan 2030 10:06:04.181,21 Jan 2030 11:20:05.704,4441.522
211,21 Jan 2030 12:05:36.525,21 Jan 2030 14:29:39.425,8642.900
212,21 Jan 2030 15:24:25.512,21 Jan 2030 16:36:15.881,4310.369
213,21 Jan 2030 17:31:09.406,21 Jan 2030 19:55:49.402,8679.996
214,21 Jan 2030 20:40:24.693,21 Jan 2030 21:54:40.326,4455.634
215,21 Jan 2030 22:50:42.383,22 Jan 2030 00:03:35.188,4372.805
216,22 Jan 2030 00:53:37.258,22 Jan 2030 03:14:59.902,8482.644
217,22 Jan 2030 04:08:39.493,22 Jan 2030 05:20:38.686,4319.193
218,22 Jan 2030 06:16:11.342,22 Jan 2030 07:36:19.328,4807.987
219,22 Jan 2030 07:58:10.920,22 Jan 2030 08:48:03.902,2992.983
220,22 Jan 2030 09:22:45.822,22 Jan 2030 10:39:25.564,4599.742
221,22 Jan 2030 11:35:14.777,22 Jan 2030 12:47:28.952,4334.175
222,22 Jan 2030 13:40:02.857,22 Jan 2030 16:00:50.039,8447.182
223,22 Jan 2030 16:52:42.695,22 Jan 2030 18:05:07.307,4344.612
224,22 Jan 2030 19:01:02.404,22 Jan 2030 20:16:43.339,4540.934
225,22 Jan 2030 20:55:31.129,22 Jan 2030 21:50:21.577,3290.449
226,22 Jan 2030 21:59:47.511,22 Jan 2030 23:24:19.106,5071.594
227,23 Jan 2030 00:19:41.412,23 Jan 2030 01:31:36.624,4315.212
228,23 Jan 2030 02:25:42.292,23 Jan 2030 04:47:37.174,8514.882
229,23 Jan 2030 05:36:28.938,23 Jan 2030 06:49:41.321,4392.384
230,23 Jan 2030 07:45:45.571,23 Jan 2030 08:59:32.922,4427.351
231,23 Jan 2030 09:46:09.338,23 Jan 2030 12:09:24.527,8595.189
232,23 Jan 2030 13:04:01.559,23 Jan 2030 14:15:53.464,4311.906
233,23 Jan 2030 15:10:56.668,23 Jan 2030 17:36:26.496,8729.828
234,23 Jan 2030 18:19:43.826,23 Jan 2030 19:34:20.960,4477.134
235,23 Jan 2030 20:30:22.393,23 Jan 2030 21:43:07.547,4365.154
236,23 Jan 2030 22:33:45.693,24 Jan 2030 00:54:48.762,8463.069
237,24 Jan 2030 01:48:13.508,24 Jan 2030 03:00:17.134,4323.626
238,24 Jan 2030 03:55:55.909,24 Jan 2030 05:14:51.588,4735.679
239,24 Jan 2030 05:41:04.005,24 Jan 2030 06:29:48.923,2924.917
240,24 Jan 2030 07:01:42.200,24 Jan 2030 08:19:07.253,4645.053
241,24 Jan 2030 09:14:53.480,24 Jan 2030 10:27:03.966,4330.486
242,24 Jan 2030 11:19:59.555,24 Jan 2030 13:40:46.014,8446.459
243,24 Jan 2030 14:32:13.785,24 Jan 2030 15:44:46.497,4352.712
244,24 Jan 2030 16:40:45.017,24 Jan 2030 17:56:01.037,4516.019
245,24 Jan 2030 18:36:43.789,24 Jan 2030 21:04:02.292,8838.503
246,24 Jan 2030 21:59:18.713,24 Jan 2030 23:11:13.239,4314.526
247,25 Jan 2030 00:05:32.686,25 Jan 2030 02:27:48.225,8535.540
248,25 Jan 2030 03:15:55.168,25 Jan 2030 04:29:21.235,4406.066
249,25 Jan 2030 05:25:26.650,25 Jan 2030 06:39:01.250,4414.600
250,25 Jan 2030 07:26:36.033,25 Jan 2030 09:49:10.110,8554.076
251,25 Jan 2030 10:43:37.223,25 Jan 2030 11:55:31.174,4313.951
252,25 Jan 2030 12:50:43.288,25 Jan 2030 15:17:12.424,8789.136
253,25 Jan 2030 15:59:00.264,25 Jan 2030 17:14:01.725,4501.461
254,25 Jan 2030 18:10:02.111,25 Jan 2030 19:22:40.404,4358.293
255,25 Jan 2030 20:13:51.190,25 Jan 2030 22:34:38.512,8447.322
256,25 Jan 2030 23:27:47.001,26 Jan 2030 00:39:55.668,4328.667
257,26 Jan 2030 01:35:40.005,26 Jan 2030 02:53:39.982,4679.977
258,26 Jan 2030 03:23:30.838,26 Jan 2030 04:11:54.776,2903.938
259,26 Jan 2030 04:40:28.607,26 Jan 2030 05:58:49.116,4700.509
260,26 Jan 2030 06:54:31.882,26 Jan 2030 08:06:39.258,4327.376
261,26 Jan 2030 08:59:54.701,26 Jan 2030 11:20:43.849,8449.147
262,26 Jan 2030 12:11:44.071,26 Jan 2030 13:24:25.768,4361.697
263,26 Jan 2030 14:20:27.278,26 Jan 2030 15:35:21.348,4494.070
264,26 Jan 2030 16:17:45.250,26 Jan 2030 18:43:45.785,8760.534
265,26 Jan 2030 19:38:55.691,26 Jan 2030 20:50:50.023,4314.332
266,26 Jan 2030 21:45:22.162,27 Jan 2030 00:08:03.594,8561.433
267,27 Jan 2030 00:55:19.994,27 Jan 2030 02:09:01.250,4421.256
268,27 Jan 2030 03:05:07.410,27 Jan 2030 04:18:30.536,4403.126
269,27 Jan 2030 05:06:57.379,27 Jan 2030 07:28:56.214,8518.836
270,27 Jan 2030 08:23:12.469,27 Jan 2030 09:35:08.989,4316.520
271,27 Jan 2030 10:30:29.295,27 Jan 2030 12:58:08.789,8859.494
272,27 Jan 2030 13:38:13.448,27 Jan 2030 14:53:42.617,4529.169
273,27 Jan 2030 15:49:41.546,27 Jan 2030 17:02:13.724,4352.178
274,27 Jan 2030 17:53:54.103,27 Jan 2030 20:14:29.285,8435.181
275,27 Jan 2030 21:07:19.936,27 Jan 2030 22:19:34.301,4334.365
276,27 Jan 2030 23:15:23.666,28 Jan 2030 00:32:38.557,4634.891
277,28 Jan 2030 01:05:36.912,28 Jan 2030 01:54:26.976,2930.064
278,28 Jan 2030 02:18:59.958,28 Jan 2030 03:38:31.188,4771.230
279,28 Jan 2030 04:34:09.979,28 Jan 2030 05:46:14.790,4324.811
280,28 Jan 2030 06:39:48.445,28 Jan 2030 09:00:43.851,8455.407
281,28 Jan 2030 09:51:13.484,28 Jan 2030 11:00:00.000,4126.516

