dtn_data/3_1_1/4to8.csv

"Access","Start Time (UTCG)","Stop Time (UTCG)","Duration (sec)"
1,1 Jan 2030 04:00:00.000,1 Jan 2030 06:05:13.268,7513.268
2,1 Jan 2030 06:55:35.074,1 Jan 2030 08:08:03.286,4348.212
3,1 Jan 2030 09:03:54.633,1 Jan 2030 10:18:09.390,4454.757
4,1 Jan 2030 11:01:00.241,1 Jan 2030 13:27:43.126,8802.884
5,1 Jan 2030 14:22:35.467,1 Jan 2030 15:34:14.766,4299.299
6,1 Jan 2030 16:28:38.654,1 Jan 2030 18:52:55.602,8656.948
7,1 Jan 2030 19:39:16.655,1 Jan 2030 20:52:43.150,4406.495
8,1 Jan 2030 21:48:38.066,1 Jan 2030 23:01:34.393,4376.327
9,1 Jan 2030 23:50:02.871,2 Jan 2030 02:13:01.600,8578.729
10,2 Jan 2030 03:06:55.795,2 Jan 2030 04:18:38.567,4302.772
11,2 Jan 2030 05:13:49.945,2 Jan 2030 06:36:39.600,4969.655
12,2 Jan 2030 06:48:29.914,2 Jan 2030 07:43:30.568,3300.655
13,2 Jan 2030 08:22:17.914,2 Jan 2030 09:37:29.233,4511.319
14,2 Jan 2030 10:33:15.393,2 Jan 2030 11:45:27.136,4331.744
15,2 Jan 2030 12:37:02.000,2 Jan 2030 14:58:45.649,8503.650
16,2 Jan 2030 15:51:07.242,2 Jan 2030 17:03:08.281,4321.039
17,2 Jan 2030 17:58:48.089,2 Jan 2030 19:15:00.341,4572.253
18,2 Jan 2030 19:49:27.421,2 Jan 2030 20:40:04.833,3037.412
19,2 Jan 2030 21:03:16.819,2 Jan 2030 22:22:23.173,4746.354
20,2 Jan 2030 23:17:47.045,3 Jan 2030 00:29:35.043,4307.998
21,3 Jan 2030 01:23:00.949,3 Jan 2030 03:45:16.251,8535.302
22,3 Jan 2030 04:35:05.523,3 Jan 2030 05:47:43.389,4357.866
23,3 Jan 2030 06:43:37.087,3 Jan 2030 07:57:35.783,4438.697
24,3 Jan 2030 08:41:46.550,3 Jan 2030 11:07:28.094,8741.544
25,3 Jan 2030 12:02:12.735,3 Jan 2030 13:13:52.656,4299.921
26,3 Jan 2030 14:08:27.877,3 Jan 2030 16:33:20.350,8692.473
27,3 Jan 2030 17:18:41.278,3 Jan 2030 18:32:24.035,4422.757
28,3 Jan 2030 19:28:19.065,3 Jan 2030 20:41:06.704,4367.639
29,3 Jan 2030 21:30:18.733,3 Jan 2030 23:52:49.793,8551.059
30,4 Jan 2030 00:46:31.326,4 Jan 2030 01:58:17.313,4305.986
31,4 Jan 2030 02:53:35.969,4 Jan 2030 04:14:14.293,4838.324
32,4 Jan 2030 04:32:32.323,4 Jan 2030 05:24:42.842,3130.519
33,4 Jan 2030 06:01:29.268,4 Jan 2030 07:17:11.092,4541.823
34,4 Jan 2030 08:12:55.091,4 Jan 2030 09:25:02.352,4327.261
35,4 Jan 2030 10:17:02.947,4 Jan 2030 12:38:39.688,8496.741
36,4 Jan 2030 13:30:40.419,4 Jan 2030 14:42:47.763,4327.344
37,4 Jan 2030 15:38:31.903,4 Jan 2030 16:54:14.561,4542.658
38,4 Jan 2030 17:31:00.590,4 Jan 2030 18:23:09.676,3129.087
39,4 Jan 2030 18:41:26.578,4 Jan 2030 20:02:06.414,4839.835
40,4 Jan 2030 20:57:25.429,4 Jan 2030 22:09:11.935,4306.507
41,4 Jan 2030 23:02:54.028,5 Jan 2030 01:25:21.907,8547.878
42,5 Jan 2030 02:14:35.055,5 Jan 2030 03:27:23.572,4368.517
43,5 Jan 2030 04:23:19.205,5 Jan 2030 05:37:03.498,4424.292
44,5 Jan 2030 06:22:25.608,5 Jan 2030 08:47:13.448,8687.840
45,5 Jan 2030 09:41:49.650,5 Jan 2030 10:53:30.657,4301.007
46,5 Jan 2030 11:48:16.353,5 Jan 2030 14:13:51.207,8734.855
47,5 Jan 2030 14:58:04.117,5 Jan 2030 16:12:05.019,4440.902
48,5 Jan 2030 17:07:59.783,5 Jan 2030 18:20:39.589,4359.806
49,5 Jan 2030 19:10:30.993,5 Jan 2030 21:32:38.712,8527.719
50,5 Jan 2030 22:26:06.426,5 Jan 2030 23:37:56.156,4309.730
51,6 Jan 2030 00:33:21.487,6 Jan 2030 01:52:36.666,4755.179
52,6 Jan 2030 02:15:39.262,6 Jan 2030 03:06:08.546,3029.284
53,6 Jan 2030 03:40:35.757,6 Jan 2030 04:56:53.112,4577.355
54,6 Jan 2030 05:52:34.501,6 Jan 2030 07:04:37.851,4323.350
55,6 Jan 2030 07:57:02.022,6 Jan 2030 10:18:35.150,8493.128
56,6 Jan 2030 11:10:12.964,6 Jan 2030 12:22:27.315,4334.351
57,6 Jan 2030 13:18:15.324,6 Jan 2030 14:33:32.278,4516.954
58,6 Jan 2030 15:12:21.491,6 Jan 2030 16:07:23.747,3302.256
59,6 Jan 2030 16:18:36.511,6 Jan 2030 17:41:49.903,4993.391
60,6 Jan 2030 18:37:03.513,6 Jan 2030 19:48:49.004,4305.491
61,6 Jan 2030 20:42:46.024,6 Jan 2030 23:05:30.673,8564.649
62,6 Jan 2030 23:54:03.544,7 Jan 2030 01:07:03.850,4380.307
63,7 Jan 2030 02:03:01.015,7 Jan 2030 03:16:32.322,4411.308
64,7 Jan 2030 04:02:58.216,7 Jan 2030 06:26:59.238,8641.022
65,7 Jan 2030 07:21:26.209,7 Jan 2030 08:33:08.774,4302.565
66,7 Jan 2030 09:28:04.144,7 Jan 2030 11:54:29.210,8785.066
67,7 Jan 2030 12:37:24.883,7 Jan 2030 13:51:46.121,4461.238
68,7 Jan 2030 14:47:40.204,7 Jan 2030 16:00:12.972,4352.768
69,7 Jan 2030 16:50:40.062,7 Jan 2030 19:12:28.434,8508.372
70,7 Jan 2030 20:05:41.046,7 Jan 2030 21:17:35.077,4314.031
71,7 Jan 2030 22:13:06.526,7 Jan 2030 23:31:20.236,4693.709
72,7 Jan 2030 23:58:16.481,8 Jan 2030 00:47:49.944,2973.463
73,8 Jan 2030 01:19:35.859,8 Jan 2030 02:36:35.300,4619.442
74,8 Jan 2030 03:32:13.632,8 Jan 2030 04:44:13.625,4319.993
75,8 Jan 2030 05:36:59.403,8 Jan 2030 07:58:32.253,8492.850
76,8 Jan 2030 08:49:44.828,8 Jan 2030 10:02:06.954,4342.126
77,8 Jan 2030 10:57:58.379,8 Jan 2030 12:12:52.770,4494.391
78,8 Jan 2030 12:53:31.249,8 Jan 2030 15:21:33.664,8882.415
79,8 Jan 2030 16:16:41.276,8 Jan 2030 17:28:26.221,4304.946
80,8 Jan 2030 18:22:37.030,8 Jan 2030 20:45:43.060,8586.031
81,8 Jan 2030 21:33:30.873,8 Jan 2030 22:46:44.210,4393.337
82,8 Jan 2030 23:42:42.507,9 Jan 2030 00:56:02.119,4399.612
83,9 Jan 2030 01:43:25.110,9 Jan 2030 04:06:45.517,8600.407
84,9 Jan 2030 05:01:02.396,9 Jan 2030 06:12:47.001,4304.605
85,9 Jan 2030 07:07:51.297,9 Jan 2030 09:35:15.560,8844.263
86,9 Jan 2030 10:16:43.166,9 Jan 2030 11:31:27.349,4484.183
87,9 Jan 2030 12:27:20.343,9 Jan 2030 13:39:46.797,4346.454
88,9 Jan 2030 14:30:46.301,9 Jan 2030 16:52:19.067,8492.766
89,9 Jan 2030 17:45:15.169,9 Jan 2030 18:57:14.082,4318.913
90,9 Jan 2030 19:52:51.101,9 Jan 2030 21:10:16.170,4645.069
91,9 Jan 2030 21:40:32.215,9 Jan 2030 22:29:50.004,2957.789
92,9 Jan 2030 22:58:27.142,10 Jan 2030 00:16:17.668,4670.527
93,10 Jan 2030 01:11:52.467,10 Jan 2030 02:23:49.635,4317.168
94,10 Jan 2030 03:16:55.264,10 Jan 2030 05:38:31.230,8495.966
95,10 Jan 2030 06:29:15.930,10 Jan 2030 07:41:46.668,4350.738
96,10 Jan 2030 08:37:41.082,10 Jan 2030 09:52:15.493,4474.410
97,10 Jan 2030 10:34:30.938,10 Jan 2030 13:01:17.738,8806.800
98,10 Jan 2030 13:56:18.725,10 Jan 2030 15:08:03.595,4304.870
99,10 Jan 2030 16:02:27.133,10 Jan 2030 18:25:59.681,8612.549
100,10 Jan 2030 19:12:56.885,10 Jan 2030 20:26:24.670,4407.785
101,10 Jan 2030 21:22:23.694,10 Jan 2030 22:35:32.742,4389.048
102,10 Jan 2030 23:23:46.957,11 Jan 2030 01:46:32.327,8565.370
103,11 Jan 2030 02:40:38.179,11 Jan 2030 03:52:25.321,4307.142
104,11 Jan 2030 04:47:37.844,11 Jan 2030 06:14:33.828,5215.984
105,11 Jan 2030 06:17:28.634,11 Jan 2030 07:16:11.676,3523.042
106,11 Jan 2030 07:55:58.469,11 Jan 2030 09:11:08.699,4510.230
107,11 Jan 2030 10:07:00.199,11 Jan 2030 11:19:21.032,4340.833
108,11 Jan 2030 12:10:50.020,11 Jan 2030 14:32:10.739,8480.719
109,11 Jan 2030 15:24:48.755,11 Jan 2030 16:36:53.175,4324.420
110,11 Jan 2030 17:32:35.249,11 Jan 2030 18:49:20.285,4605.035
111,11 Jan 2030 19:22:30.282,11 Jan 2030 20:12:13.280,2982.997
112,11 Jan 2030 20:37:05.406,11 Jan 2030 21:56:00.245,4734.839
113,11 Jan 2030 22:51:31.006,12 Jan 2030 00:03:25.864,4314.858
114,12 Jan 2030 00:56:49.752,12 Jan 2030 03:18:32.375,8502.623
115,12 Jan 2030 04:08:46.210,12 Jan 2030 05:21:26.460,4360.250
116,12 Jan 2030 06:17:23.430,12 Jan 2030 07:31:40.065,4456.635
117,12 Jan 2030 08:15:21.602,12 Jan 2030 10:41:02.138,8740.536
118,12 Jan 2030 11:35:55.835,12 Jan 2030 12:47:41.099,4305.264
119,12 Jan 2030 13:42:16.391,12 Jan 2030 16:06:21.264,8644.873
120,12 Jan 2030 16:52:21.377,12 Jan 2030 18:06:05.221,4423.844
121,12 Jan 2030 19:02:04.587,12 Jan 2030 20:15:04.097,4379.510
122,12 Jan 2030 21:04:04.365,12 Jan 2030 23:26:19.745,8535.380
123,13 Jan 2030 00:20:13.553,13 Jan 2030 01:32:03.745,4310.193
124,13 Jan 2030 02:27:23.831,13 Jan 2030 03:49:38.331,4934.500
125,13 Jan 2030 04:04:08.034,13 Jan 2030 04:57:19.176,3191.141
126,13 Jan 2030 05:35:10.083,13 Jan 2030 06:50:50.195,4540.111
127,13 Jan 2030 07:46:39.763,13 Jan 2030 08:58:55.618,4335.855
128,13 Jan 2030 09:50:51.501,13 Jan 2030 12:12:03.574,8472.073
129,13 Jan 2030 13:04:21.753,13 Jan 2030 14:16:32.340,4330.587
130,13 Jan 2030 15:12:18.974,13 Jan 2030 16:28:30.219,4571.244
131,13 Jan 2030 17:04:12.918,13 Jan 2030 17:55:08.385,3055.467
132,13 Jan 2030 18:15:22.128,13 Jan 2030 19:35:43.035,4820.907
133,13 Jan 2030 20:31:09.252,13 Jan 2030 21:43:02.304,4313.052
134,13 Jan 2030 22:36:42.986,14 Jan 2030 00:58:36.033,8513.046
135,14 Jan 2030 01:48:15.563,14 Jan 2030 03:01:06.343,4370.780
136,14 Jan 2030 03:57:05.453,14 Jan 2030 05:11:06.167,4440.714
137,14 Jan 2030 05:56:04.212,14 Jan 2030 08:20:46.917,8682.704
138,14 Jan 2030 09:15:32.594,14 Jan 2030 10:27:18.730,4306.136
139,14 Jan 2030 11:22:04.879,14 Jan 2030 13:46:48.672,8683.793
140,14 Jan 2030 14:31:44.132,14 Jan 2030 15:45:45.880,4441.748
141,14 Jan 2030 16:41:45.175,14 Jan 2030 17:54:36.099,4370.923
142,14 Jan 2030 18:44:17.853,14 Jan 2030 21:06:07.829,8509.977
143,14 Jan 2030 21:59:48.475,14 Jan 2030 23:11:42.257,4313.782
144,15 Jan 2030 00:07:09.294,15 Jan 2030 01:27:30.458,4821.165
145,15 Jan 2030 01:47:51.998,15 Jan 2030 02:38:39.962,3047.964
146,15 Jan 2030 03:14:17.056,15 Jan 2030 04:30:31.838,4574.782
147,15 Jan 2030 05:26:19.046,15 Jan 2030 06:38:30.538,4331.492
148,15 Jan 2030 07:30:50.976,15 Jan 2030 09:51:57.752,8466.776
149,15 Jan 2030 10:43:54.129,15 Jan 2030 11:56:11.594,4337.465
150,15 Jan 2030 12:52:02.305,15 Jan 2030 14:07:44.514,4542.209
151,15 Jan 2030 14:45:41.732,15 Jan 2030 15:38:58.619,3196.886
152,15 Jan 2030 15:52:53.839,15 Jan 2030 17:15:26.061,4952.223
153,15 Jan 2030 18:10:47.182,15 Jan 2030 19:22:38.923,4311.741
154,15 Jan 2030 20:16:35.084,15 Jan 2030 22:38:42.615,8527.531
155,15 Jan 2030 23:27:43.889,16 Jan 2030 00:40:46.304,4382.415
156,16 Jan 2030 01:36:47.144,16 Jan 2030 02:50:33.579,4426.435
157,16 Jan 2030 03:36:39.692,16 Jan 2030 06:00:32.101,8632.409
158,16 Jan 2030 06:55:09.001,16 Jan 2030 08:06:56.490,4307.488
159,16 Jan 2030 09:01:52.652,16 Jan 2030 11:27:22.949,8730.297
160,16 Jan 2030 12:11:04.837,16 Jan 2030 13:25:26.655,4461.818
161,16 Jan 2030 14:21:25.474,16 Jan 2030 15:34:08.658,4363.183
162,16 Jan 2030 16:24:27.893,16 Jan 2030 18:45:56.678,8488.785
163,16 Jan 2030 19:39:22.931,16 Jan 2030 20:51:20.857,4317.925
164,16 Jan 2030 21:46:54.249,16 Jan 2030 23:05:58.785,4744.535
165,16 Jan 2030 23:30:51.068,17 Jan 2030 00:20:16.297,2965.229
166,17 Jan 2030 00:53:17.968,17 Jan 2030 02:10:13.639,4615.671
167,17 Jan 2030 03:05:58.036,17 Jan 2030 04:18:05.746,4327.711
168,17 Jan 2030 05:10:48.659,17 Jan 2030 07:31:53.465,8464.806
169,17 Jan 2030 08:23:25.809,17 Jan 2030 09:35:50.923,4345.114
170,17 Jan 2030 10:31:45.261,17 Jan 2030 11:47:02.177,4516.915
171,17 Jan 2030 12:26:58.066,17 Jan 2030 14:55:09.359,8891.293
172,17 Jan 2030 15:50:24.805,17 Jan 2030 17:02:15.724,4310.918
173,17 Jan 2030 17:56:26.149,17 Jan 2030 20:18:52.610,8546.461
174,17 Jan 2030 21:07:11.068,17 Jan 2030 22:20:26.361,4395.293
175,17 Jan 2030 23:16:28.515,18 Jan 2030 00:30:02.093,4413.578
176,18 Jan 2030 01:17:08.891,18 Jan 2030 03:40:17.737,8588.846
177,18 Jan 2030 04:34:45.021,18 Jan 2030 05:46:34.354,4309.333
178,18 Jan 2030 06:41:39.754,18 Jan 2030 09:08:05.306,8785.553
179,18 Jan 2030 09:50:23.132,18 Jan 2030 11:05:07.540,4484.407
180,18 Jan 2030 12:01:05.486,18 Jan 2030 13:13:41.730,4356.244
181,18 Jan 2030 14:04:34.878,18 Jan 2030 16:25:46.385,8471.507
182,18 Jan 2030 17:18:56.889,18 Jan 2030 18:30:59.551,4322.662
183,18 Jan 2030 19:26:38.741,18 Jan 2030 20:44:45.159,4686.418
184,18 Jan 2030 21:13:22.620,18 Jan 2030 22:02:11.083,2928.463
185,18 Jan 2030 22:32:10.652,18 Jan 2030 23:49:55.626,4664.975
186,19 Jan 2030 00:45:36.727,19 Jan 2030 01:57:41.225,4324.498
187,19 Jan 2030 02:50:44.738,19 Jan 2030 05:11:50.933,8466.195
188,19 Jan 2030 06:02:56.748,19 Jan 2030 07:15:30.330,4353.582
189,19 Jan 2030 08:11:27.842,19 Jan 2030 09:26:22.533,4494.691
190,19 Jan 2030 10:08:03.177,19 Jan 2030 12:34:52.938,8809.761
191,19 Jan 2030 13:30:02.095,19 Jan 2030 14:41:52.681,4310.585
192,19 Jan 2030 15:36:16.258,19 Jan 2030 17:59:06.606,8570.349
193,19 Jan 2030 18:46:36.933,19 Jan 2030 20:00:06.505,4409.572
194,19 Jan 2030 20:56:09.583,19 Jan 2030 22:09:31.571,4401.988
195,19 Jan 2030 22:57:32.570,20 Jan 2030 01:20:03.890,8551.320
196,20 Jan 2030 02:14:20.653,20 Jan 2030 03:26:12.337,4311.684
197,20 Jan 2030 04:21:26.234,20 Jan 2030 06:48:57.173,8850.939
198,20 Jan 2030 07:29:38.512,20 Jan 2030 08:44:48.558,4510.046
199,20 Jan 2030 09:40:45.201,20 Jan 2030 10:53:15.245,4350.044
200,20 Jan 2030 11:44:39.170,20 Jan 2030 14:05:37.058,8457.888
201,20 Jan 2030 14:58:30.300,20 Jan 2030 16:10:38.323,4328.023
202,20 Jan 2030 17:06:22.777,20 Jan 2030 18:23:42.593,4639.816
203,20 Jan 2030 18:55:33.132,20 Jan 2030 19:44:28.495,2935.363
204,20 Jan 2030 20:10:51.414,20 Jan 2030 21:29:37.801,4726.387
205,20 Jan 2030 22:25:15.131,20 Jan 2030 23:37:16.955,4321.824
206,21 Jan 2030 00:30:39.356,21 Jan 2030 02:51:50.445,8471.089
207,21 Jan 2030 03:42:26.856,21 Jan 2030 04:55:09.830,4362.973
208,21 Jan 2030 05:51:10.074,21 Jan 2030 07:05:45.066,4474.992
209,21 Jan 2030 07:48:58.244,21 Jan 2030 10:14:36.841,8738.597
210,21 Jan 2030 11:09:39.055,21 Jan 2030 12:21:29.784,4310.729
211,21 Jan 2030 13:16:05.496,21 Jan 2030 15:39:25.324,8599.828
212,21 Jan 2030 16:26:01.315,21 Jan 2030 17:39:46.749,4425.434
213,21 Jan 2030 18:35:50.339,21 Jan 2030 19:49:01.885,4391.547
214,21 Jan 2030 20:37:51.410,21 Jan 2030 22:59:50.607,8519.197
215,21 Jan 2030 23:53:55.862,22 Jan 2030 01:05:50.418,4314.556
216,22 Jan 2030 02:01:12.139,22 Jan 2030 03:25:45.335,5073.197
217,22 Jan 2030 03:35:03.208,22 Jan 2030 04:30:00.217,3297.008
218,22 Jan 2030 05:08:50.333,22 Jan 2030 06:24:29.709,4539.376
219,22 Jan 2030 07:20:24.634,22 Jan 2030 08:32:49.167,4344.533
220,22 Jan 2030 09:24:41.065,22 Jan 2030 11:45:28.830,8447.765
221,22 Jan 2030 12:38:03.139,22 Jan 2030 13:50:17.189,4334.049
222,22 Jan 2030 14:46:06.390,22 Jan 2030 16:02:47.537,4601.147
223,22 Jan 2030 16:37:25.898,22 Jan 2030 17:27:15.849,2989.950
224,22 Jan 2030 17:49:13.175,22 Jan 2030 19:09:20.183,4807.008
225,22 Jan 2030 20:04:53.223,22 Jan 2030 21:16:52.901,4319.678
226,22 Jan 2030 22:10:32.666,23 Jan 2030 00:31:52.318,8479.652
227,23 Jan 2030 01:21:56.048,23 Jan 2030 02:34:49.405,4373.357
228,23 Jan 2030 03:30:51.967,23 Jan 2030 04:45:09.406,4457.439
229,23 Jan 2030 05:29:44.400,23 Jan 2030 07:54:21.092,8676.692
230,23 Jan 2030 08:49:15.671,23 Jan 2030 10:01:07.036,4311.365
231,23 Jan 2030 10:55:53.934,23 Jan 2030 13:19:49.612,8635.678
232,23 Jan 2030 14:05:23.970,23 Jan 2030 15:19:27.103,4443.133
233,23 Jan 2030 16:15:30.794,23 Jan 2030 17:28:32.921,4382.127
234,23 Jan 2030 18:18:06.006,23 Jan 2030 20:39:37.958,8491.953
235,23 Jan 2030 21:33:30.625,23 Jan 2030 22:45:28.595,4317.970
236,23 Jan 2030 23:40:57.490,24 Jan 2030 01:02:36.787,4899.296
237,24 Jan 2030 01:19:54.464,24 Jan 2030 02:11:16.384,3081.920
238,24 Jan 2030 02:47:57.681,24 Jan 2030 04:04:11.002,4573.321
239,24 Jan 2030 05:00:03.767,24 Jan 2030 06:12:23.459,4339.691
240,24 Jan 2030 07:04:40.841,24 Jan 2030 09:25:21.868,8441.028
241,24 Jan 2030 10:17:35.342,24 Jan 2030 11:29:56.134,4340.792
242,24 Jan 2030 12:25:49.603,24 Jan 2030 13:41:57.921,4568.319
243,24 Jan 2030 14:19:03.031,24 Jan 2030 15:10:50.634,3107.604
244,24 Jan 2030 15:26:58.361,24 Jan 2030 16:49:02.803,4924.442
245,24 Jan 2030 17:44:31.015,24 Jan 2030 18:56:29.064,4318.049
246,24 Jan 2030 19:50:24.791,24 Jan 2030 22:11:56.943,8492.152
247,24 Jan 2030 23:01:24.230,25 Jan 2030 00:14:29.076,4384.846
248,25 Jan 2030 01:10:33.522,25 Jan 2030 02:24:35.264,4441.741
249,25 Jan 2030 03:10:22.698,25 Jan 2030 05:34:05.734,8623.036
250,25 Jan 2030 06:28:51.916,25 Jan 2030 07:40:44.412,4312.496
251,25 Jan 2030 08:35:41.626,25 Jan 2030 11:00:20.490,8678.864
252,25 Jan 2030 11:44:44.628,25 Jan 2030 12:59:07.559,4462.931
253,25 Jan 2030 13:55:10.958,25 Jan 2030 15:08:04.608,4373.650
254,25 Jan 2030 15:58:16.876,25 Jan 2030 18:19:26.032,8469.157
255,25 Jan 2030 19:13:04.928,25 Jan 2030 20:25:06.879,4321.951
256,25 Jan 2030 21:20:42.338,25 Jan 2030 22:40:43.268,4800.931
257,25 Jan 2030 23:03:21.827,25 Jan 2030 23:52:47.993,2966.166
258,26 Jan 2030 00:26:59.244,26 Jan 2030 01:43:52.463,4613.219
259,26 Jan 2030 02:39:42.614,26 Jan 2030 03:51:58.072,4335.458
260,26 Jan 2030 04:44:38.726,26 Jan 2030 07:05:16.346,8437.620
261,26 Jan 2030 07:57:06.872,26 Jan 2030 09:09:35.160,4348.288
262,26 Jan 2030 10:05:32.417,26 Jan 2030 11:21:12.424,4540.007
263,26 Jan 2030 12:00:26.184,26 Jan 2030 12:56:46.675,3380.490
264,26 Jan 2030 13:02:32.787,26 Jan 2030 14:28:45.668,5172.881
265,26 Jan 2030 15:24:08.484,26 Jan 2030 16:36:05.411,4316.928
266,26 Jan 2030 17:30:15.830,26 Jan 2030 19:52:04.803,8508.973
267,26 Jan 2030 20:40:51.261,26 Jan 2030 21:54:08.832,4397.571
268,26 Jan 2030 22:50:14.763,27 Jan 2030 00:04:02.397,4427.634
269,27 Jan 2030 00:50:54.106,27 Jan 2030 03:13:50.814,8576.709
270,27 Jan 2030 04:08:27.793,27 Jan 2030 05:20:21.923,4314.129
271,27 Jan 2030 06:15:28.628,27 Jan 2030 08:40:59.177,8730.548
272,27 Jan 2030 09:24:02.912,27 Jan 2030 10:38:48.139,4485.228
273,27 Jan 2030 11:34:50.821,27 Jan 2030 12:47:36.857,4366.036
274,27 Jan 2030 13:38:24.486,27 Jan 2030 15:59:14.912,8450.426
275,27 Jan 2030 16:52:38.720,27 Jan 2030 18:04:45.247,4326.527
276,27 Jan 2030 19:00:26.693,27 Jan 2030 20:19:17.475,4730.781
277,27 Jan 2030 20:46:11.700,27 Jan 2030 21:34:37.911,2906.210
278,27 Jan 2030 22:05:53.039,27 Jan 2030 23:23:34.091,4661.053
279,28 Jan 2030 00:19:21.171,28 Jan 2030 01:31:32.995,4331.824
280,28 Jan 2030 02:24:34.910,28 Jan 2030 04:45:12.482,8437.572
281,28 Jan 2030 05:36:37.650,28 Jan 2030 06:49:14.281,4356.631
282,28 Jan 2030 07:45:14.864,28 Jan 2030 09:00:30.156,4515.292
283,28 Jan 2030 09:41:36.818,28 Jan 2030 11:00:00.000,4703.182

