dtn_data/3_1_2/0to7.csv

"Access","Start Time (UTCG)","Stop Time (UTCG)","Duration (sec)"
1,1 Jan 2030 04:00:00.000,1 Jan 2030 04:57:13.004,3433.004
2,1 Jan 2030 13:23:00.172,1 Jan 2030 18:18:58.949,17758.777
3,2 Jan 2030 02:45:02.810,2 Jan 2030 07:41:04.766,17761.956
4,2 Jan 2030 16:06:43.271,2 Jan 2030 21:03:18.160,17794.889
5,3 Jan 2030 05:27:52.232,3 Jan 2030 10:25:26.113,17853.881
6,3 Jan 2030 18:48:23.887,3 Jan 2030 23:47:16.606,17932.719
7,4 Jan 2030 08:08:16.117,4 Jan 2030 13:08:39.983,18023.866
8,4 Jan 2030 21:27:30.063,5 Jan 2030 02:29:29.726,18119.662
9,5 Jan 2030 10:46:09.392,5 Jan 2030 15:49:42.550,18213.158
10,6 Jan 2030 00:04:19.499,6 Jan 2030 05:09:18.091,18298.592
11,6 Jan 2030 13:22:06.820,6 Jan 2030 18:28:18.339,18371.519
12,7 Jan 2030 02:39:38.361,7 Jan 2030 07:46:47.036,18428.676
13,7 Jan 2030 15:57:01.338,7 Jan 2030 21:04:49.163,18467.826
14,8 Jan 2030 05:14:22.992,8 Jan 2030 10:22:30.539,18487.547
15,8 Jan 2030 18:31:50.474,8 Jan 2030 23:39:57.551,18487.077
16,9 Jan 2030 07:49:30.752,9 Jan 2030 12:57:16.977,18466.225
17,9 Jan 2030 21:07:30.520,10 Jan 2030 02:14:35.888,18425.368
18,10 Jan 2030 10:25:56.036,10 Jan 2030 15:32:01.562,18365.526
19,10 Jan 2030 23:44:52.885,11 Jan 2030 04:49:41.396,18288.510
20,11 Jan 2030 13:04:25.583,11 Jan 2030 18:07:42.748,18197.164
21,12 Jan 2030 02:24:37.086,12 Jan 2030 07:26:12.657,18095.570
22,12 Jan 2030 15:45:28.117,12 Jan 2030 20:45:17.389,17989.271
23,13 Jan 2030 05:06:56.505,13 Jan 2030 10:05:01.784,17885.278
24,13 Jan 2030 18:28:56.652,13 Jan 2030 23:25:28.387,17791.735
25,14 Jan 2030 07:51:19.406,14 Jan 2030 12:46:36.563,17717.157
26,14 Jan 2030 21:13:52.600,15 Jan 2030 02:08:21.794,17669.194
27,15 Jan 2030 10:36:22.329,15 Jan 2030 15:30:35.516,17653.186
28,15 Jan 2030 23:58:34.795,16 Jan 2030 04:53:05.788,17670.994
29,16 Jan 2030 13:20:18.208,16 Jan 2030 18:15:38.757,17720.549
30,17 Jan 2030 02:41:24.219,17 Jan 2030 07:38:00.569,17796.351
31,17 Jan 2030 16:01:48.527,17 Jan 2030 20:59:59.194,17890.667
32,18 Jan 2030 05:21:30.693,18 Jan 2030 10:21:25.670,17994.977
33,18 Jan 2030 18:40:33.415,18 Jan 2030 23:42:14.592,18101.177
34,19 Jan 2030 07:59:01.625,19 Jan 2030 13:02:23.966,18202.341
35,19 Jan 2030 21:17:01.652,20 Jan 2030 02:21:54.654,18293.002
36,20 Jan 2030 10:34:40.550,20 Jan 2030 15:40:49.707,18369.157
37,20 Jan 2030 23:52:05.695,21 Jan 2030 04:59:13.719,18428.024
38,21 Jan 2030 13:09:24.477,21 Jan 2030 18:17:12.316,18467.839
39,22 Jan 2030 02:26:44.163,22 Jan 2030 07:34:51.786,18487.624
40,22 Jan 2030 15:44:11.805,22 Jan 2030 20:52:18.840,18487.035
41,23 Jan 2030 05:01:54.161,23 Jan 2030 10:09:40.456,18466.295
42,23 Jan 2030 18:19:57.588,23 Jan 2030 23:27:03.789,18426.201
43,24 Jan 2030 07:38:27.863,24 Jan 2030 12:44:36.079,18368.216
44,24 Jan 2030 20:57:29.906,25 Jan 2030 02:02:24.533,18294.628
45,25 Jan 2030 10:17:07.368,25 Jan 2030 15:20:36.120,18208.753
46,25 Jan 2030 23:37:22.115,26 Jan 2030 04:39:17.233,18115.118
47,26 Jan 2030 12:58:13.647,26 Jan 2030 17:58:33.180,18019.534
48,27 Jan 2030 02:19:38.508,27 Jan 2030 07:18:27.507,17928.999
49,27 Jan 2030 15:41:30.003,27 Jan 2030 20:39:01.182,17851.179
50,28 Jan 2030 05:03:38.340,28 Jan 2030 10:00:11.893,17793.553

