dtn_data/3_1_2/1to6.csv

"Access","Start Time (UTCG)","Stop Time (UTCG)","Duration (sec)"
1,1 Jan 2030 12:33:02.288,1 Jan 2030 15:20:14.554,10032.267
2,2 Jan 2030 01:35:54.795,2 Jan 2030 04:20:30.372,9875.577
3,2 Jan 2030 14:38:17.972,2 Jan 2030 17:20:57.584,9759.611
4,3 Jan 2030 03:40:11.888,3 Jan 2030 06:21:41.894,9690.006
5,3 Jan 2030 16:41:37.926,3 Jan 2030 19:22:48.244,9670.318
6,4 Jan 2030 05:42:38.841,4 Jan 2030 08:24:20.453,9701.611
7,4 Jan 2030 18:43:18.712,4 Jan 2030 21:26:20.989,9782.277
8,5 Jan 2030 07:43:42.684,5 Jan 2030 10:28:50.947,9908.263
9,5 Jan 2030 20:43:56.585,5 Jan 2030 23:31:50.166,10073.581
10,6 Jan 2030 09:44:06.488,6 Jan 2030 12:35:17.483,10270.996
11,6 Jan 2030 22:44:18.284,7 Jan 2030 01:39:10.994,10492.710
12,7 Jan 2030 11:44:37.346,7 Jan 2030 14:43:28.361,10731.015
13,8 Jan 2030 00:45:08.295,8 Jan 2030 03:48:07.026,10978.731
14,8 Jan 2030 13:45:54.885,8 Jan 2030 16:53:04.403,11229.518
15,9 Jan 2030 02:46:59.972,9 Jan 2030 05:58:17.960,11477.988
16,9 Jan 2030 15:48:25.576,9 Jan 2030 19:03:45.317,11719.741
17,10 Jan 2030 04:50:12.961,10 Jan 2030 08:09:24.253,11951.292
18,10 Jan 2030 17:52:22.729,10 Jan 2030 21:15:12.722,12169.993
19,11 Jan 2030 06:54:54.960,11 Jan 2030 10:21:08.840,12373.880
20,11 Jan 2030 19:57:49.322,11 Jan 2030 23:27:10.869,12561.547
21,12 Jan 2030 09:01:05.131,12 Jan 2030 12:33:17.193,12732.062
22,12 Jan 2030 22:04:41.481,13 Jan 2030 01:39:26.301,12884.820
23,13 Jan 2030 11:08:37.273,13 Jan 2030 14:45:36.757,13019.484
24,14 Jan 2030 00:12:51.299,14 Jan 2030 03:51:47.189,13135.890
25,14 Jan 2030 13:17:22.267,14 Jan 2030 16:57:56.274,13234.007
26,15 Jan 2030 02:22:08.841,15 Jan 2030 06:04:02.703,13313.862
27,15 Jan 2030 15:27:09.661,15 Jan 2030 19:10:05.210,13375.549
28,16 Jan 2030 04:32:23.364,16 Jan 2030 08:16:02.504,13419.141
29,16 Jan 2030 17:37:48.593,16 Jan 2030 21:21:53.310,13444.717
30,17 Jan 2030 06:43:24.008,17 Jan 2030 10:27:36.339,13452.331
31,17 Jan 2030 19:49:08.284,17 Jan 2030 23:33:10.289,13442.006
32,18 Jan 2030 08:55:00.113,18 Jan 2030 12:38:33.842,13413.728
33,18 Jan 2030 22:00:58.207,19 Jan 2030 01:43:45.668,13367.461
34,19 Jan 2030 11:07:01.286,19 Jan 2030 14:48:44.428,13303.143
35,20 Jan 2030 00:13:08.077,20 Jan 2030 03:53:28.779,13220.703
36,20 Jan 2030 13:19:17.303,20 Jan 2030 16:57:57.374,13120.071
37,21 Jan 2030 02:25:27.674,21 Jan 2030 06:02:08.905,13001.231
38,21 Jan 2030 15:31:37.871,21 Jan 2030 19:06:02.112,12864.241
39,22 Jan 2030 04:37:46.527,22 Jan 2030 08:09:35.820,12709.292
40,22 Jan 2030 17:43:52.230,22 Jan 2030 21:12:48.966,12536.736
41,23 Jan 2030 06:49:53.464,23 Jan 2030 10:15:40.674,12347.211
42,23 Jan 2030 19:55:48.638,23 Jan 2030 23:18:10.319,12141.681
43,24 Jan 2030 09:01:36.014,24 Jan 2030 12:20:17.600,11921.585
44,24 Jan 2030 22:07:13.714,25 Jan 2030 01:22:02.645,11688.931
45,25 Jan 2030 11:12:39.710,25 Jan 2030 14:23:26.115,11446.405
46,26 Jan 2030 00:17:51.784,26 Jan 2030 03:24:29.324,11197.540
47,26 Jan 2030 13:22:47.552,26 Jan 2030 16:25:14.333,10946.781
48,27 Jan 2030 02:27:24.501,27 Jan 2030 05:25:44.051,10699.550
49,27 Jan 2030 15:31:40.041,27 Jan 2030 18:26:02.274,10462.233
50,28 Jan 2030 04:35:31.623,28 Jan 2030 07:26:13.655,10242.032

