dtn_data/3_1_2/1to7.csv

"Access","Start Time (UTCG)","Stop Time (UTCG)","Duration (sec)"
1,1 Jan 2030 08:11:58.412,1 Jan 2030 11:00:10.769,10092.357
2,1 Jan 2030 21:15:00.522,2 Jan 2030 00:00:24.129,9923.607
3,2 Jan 2030 10:17:33.527,2 Jan 2030 13:00:46.883,9793.356
4,2 Jan 2030 23:19:37.113,3 Jan 2030 02:01:24.899,9707.786
5,3 Jan 2030 12:21:12.203,3 Jan 2030 15:02:23.416,9671.213
6,4 Jan 2030 01:22:21.101,4 Jan 2030 04:03:46.662,9685.561
7,4 Jan 2030 14:23:07.466,4 Jan 2030 17:05:37.563,9750.098
8,5 Jan 2030 03:23:36.114,5 Jan 2030 06:07:57.679,9861.565
9,5 Jan 2030 16:23:52.696,5 Jan 2030 19:10:47.231,10014.536
10,6 Jan 2030 05:24:03.259,6 Jan 2030 08:14:05.363,10202.103
11,6 Jan 2030 18:24:13.796,6 Jan 2030 21:17:50.385,10416.589
12,7 Jan 2030 07:24:29.882,7 Jan 2030 10:22:00.072,10650.190
13,7 Jan 2030 20:24:56.408,7 Jan 2030 23:26:31.933,10895.525
14,8 Jan 2030 09:25:37.422,8 Jan 2030 12:31:23.358,11145.936
15,8 Jan 2030 22:26:36.080,9 Jan 2030 01:36:31.791,11395.711
16,9 Jan 2030 11:27:54.669,9 Jan 2030 14:41:54.806,11640.136
17,10 Jan 2030 00:29:34.693,10 Jan 2030 03:47:30.116,11875.422
18,10 Jan 2030 13:31:36.971,10 Jan 2030 16:53:15.625,12098.655
19,11 Jan 2030 02:34:01.737,11 Jan 2030 05:59:09.393,12307.656
20,11 Jan 2030 15:36:48.778,11 Jan 2030 19:05:09.638,12500.861
21,12 Jan 2030 04:39:57.529,12 Jan 2030 08:11:14.704,12677.175
22,12 Jan 2030 17:43:27.146,12 Jan 2030 21:17:23.046,12835.901
23,13 Jan 2030 06:47:16.588,13 Jan 2030 10:23:33.208,12976.619
24,13 Jan 2030 19:51:24.676,13 Jan 2030 23:29:43.798,13099.122
25,14 Jan 2030 08:55:50.144,14 Jan 2030 12:35:53.476,13203.333
26,14 Jan 2030 22:00:31.666,15 Jan 2030 01:42:00.937,13289.271
27,15 Jan 2030 11:05:27.889,15 Jan 2030 14:48:04.887,13356.998
28,16 Jan 2030 00:10:37.449,16 Jan 2030 03:54:04.064,13406.615
29,16 Jan 2030 13:15:58.986,16 Jan 2030 16:59:57.175,13438.189
30,17 Jan 2030 02:21:31.154,17 Jan 2030 06:05:42.940,13451.786
31,17 Jan 2030 15:27:12.622,17 Jan 2030 19:11:20.062,13447.441
32,18 Jan 2030 04:33:02.077,18 Jan 2030 08:16:47.229,13425.152
33,18 Jan 2030 17:38:58.226,18 Jan 2030 21:22:03.111,13384.885
34,19 Jan 2030 06:44:59.785,19 Jan 2030 10:27:06.377,13326.592
35,19 Jan 2030 19:51:05.479,19 Jan 2030 23:31:55.682,13250.203
36,20 Jan 2030 08:57:14.036,20 Jan 2030 12:36:29.674,13155.637
37,20 Jan 2030 22:03:24.171,21 Jan 2030 01:40:47.037,13042.866
38,21 Jan 2030 11:09:34.576,21 Jan 2030 14:44:46.487,12911.911
39,22 Jan 2030 00:15:43.898,22 Jan 2030 03:48:26.821,12762.923
40,22 Jan 2030 13:21:50.746,22 Jan 2030 16:51:46.928,12596.181
41,23 Jan 2030 02:27:53.647,23 Jan 2030 05:54:45.865,12412.218
42,23 Jan 2030 15:33:51.022,23 Jan 2030 18:57:22.915,12211.893
43,24 Jan 2030 04:39:41.201,24 Jan 2030 07:59:37.660,11996.459
44,24 Jan 2030 17:45:22.347,24 Jan 2030 21:01:30.070,11767.723
45,25 Jan 2030 06:50:52.478,25 Jan 2030 10:03:00.624,11528.145
46,25 Jan 2030 19:56:09.450,25 Jan 2030 23:04:10.394,11280.944
47,26 Jan 2030 09:01:10.926,26 Jan 2030 12:05:01.189,11030.263
48,26 Jan 2030 22:05:54.438,27 Jan 2030 01:05:35.628,10781.190
49,27 Jan 2030 11:10:17.399,27 Jan 2030 14:05:57.204,10539.804
50,28 Jan 2030 00:14:17.241,28 Jan 2030 03:06:10.302,10313.060

