dtn_data/3_1_2/2to7.csv

"Access","Start Time (UTCG)","Stop Time (UTCG)","Duration (sec)"
1,1 Jan 2030 06:04:05.111,1 Jan 2030 11:05:55.436,18110.325
2,1 Jan 2030 19:18:41.057,2 Jan 2030 00:21:18.764,18157.708
3,2 Jan 2030 08:33:29.765,2 Jan 2030 13:36:41.096,18191.331
4,2 Jan 2030 21:48:29.061,3 Jan 2030 02:52:01.903,18212.842
5,3 Jan 2030 11:03:36.720,3 Jan 2030 16:07:20.057,18223.336
6,4 Jan 2030 00:18:50.593,4 Jan 2030 05:22:33.956,18223.362
7,4 Jan 2030 13:34:08.731,4 Jan 2030 18:37:41.654,18212.923
8,5 Jan 2030 02:49:29.530,5 Jan 2030 07:52:41.003,18191.473
9,5 Jan 2030 16:04:51.861,5 Jan 2030 21:07:29.781,18157.921
10,6 Jan 2030 05:20:15.192,6 Jan 2030 10:22:05.817,18110.626
11,6 Jan 2030 18:35:39.694,6 Jan 2030 23:36:27.072,18047.377
12,7 Jan 2030 07:51:06.356,7 Jan 2030 12:50:31.720,17965.364
13,7 Jan 2030 21:06:37.056,8 Jan 2030 02:04:18.136,17861.080
14,8 Jan 2030 10:22:14.697,8 Jan 2030 15:17:44.913,17730.217
15,8 Jan 2030 23:38:03.355,9 Jan 2030 04:30:50.793,17567.438
16,9 Jan 2030 12:54:08.513,9 Jan 2030 17:43:34.566,17366.053
17,10 Jan 2030 02:10:37.401,10 Jan 2030 06:55:54.936,17117.535
18,10 Jan 2030 15:27:39.518,10 Jan 2030 20:07:50.305,16810.786
19,11 Jan 2030 04:45:27.488,11 Jan 2030 09:19:18.449,16430.961
20,11 Jan 2030 18:04:18.346,11 Jan 2030 22:30:16.027,15957.681
21,12 Jan 2030 07:24:35.711,12 Jan 2030 11:40:37.710,15361.999
22,12 Jan 2030 20:46:53.479,13 Jan 2030 00:50:14.584,14601.105
23,13 Jan 2030 10:12:02.548,13 Jan 2030 13:58:50.828,13608.281
24,13 Jan 2030 23:41:24.404,14 Jan 2030 03:05:55.719,12271.315
25,14 Jan 2030 13:17:24.086,14 Jan 2030 16:10:20.083,10375.997
26,15 Jan 2030 03:05:29.333,15 Jan 2030 05:08:32.316,7382.983
27,19 Jan 2030 16:25:39.204,19 Jan 2030 18:17:07.350,6688.145
28,20 Jan 2030 05:21:55.593,20 Jan 2030 08:08:21.308,9985.715
29,20 Jan 2030 18:25:41.002,20 Jan 2030 21:45:48.583,12007.581
30,21 Jan 2030 07:32:26.138,21 Jan 2030 11:16:03.132,13416.994
31,21 Jan 2030 20:40:50.234,22 Jan 2030 00:41:46.938,14456.703
32,22 Jan 2030 09:50:18.653,22 Jan 2030 14:04:28.746,15250.093
33,22 Jan 2030 23:00:33.877,23 Jan 2030 03:25:03.250,15869.373
34,23 Jan 2030 12:11:26.160,23 Jan 2030 16:44:06.546,16360.386
35,24 Jan 2030 01:22:49.728,24 Jan 2030 06:02:03.625,16753.896
36,24 Jan 2030 14:34:40.980,24 Jan 2030 19:19:12.422,17071.442
37,25 Jan 2030 03:46:57.549,25 Jan 2030 08:35:46.174,17328.625
38,25 Jan 2030 16:59:37.764,25 Jan 2030 21:51:54.820,17537.057
39,26 Jan 2030 06:12:40.288,26 Jan 2030 11:07:45.919,17705.631
40,26 Jan 2030 19:26:03.909,27 Jan 2030 00:23:25.207,17841.298
41,27 Jan 2030 08:39:47.382,27 Jan 2030 13:38:56.972,17949.590
42,27 Jan 2030 21:53:49.321,28 Jan 2030 02:54:24.291,18034.970

