dtn_data/3_1_2/7to9.csv

"Access","Start Time (UTCG)","Stop Time (UTCG)","Duration (sec)"
1,1 Jan 2030 04:00:00.000,8 Jan 2030 13:53:29.501,640409.501
2,8 Jan 2030 14:09:17.440,9 Jan 2030 02:55:57.397,45999.957
3,9 Jan 2030 03:41:33.164,9 Jan 2030 16:06:09.725,44676.561
4,9 Jan 2030 17:04:58.330,10 Jan 2030 05:18:54.811,44036.481
5,10 Jan 2030 06:25:00.943,10 Jan 2030 18:33:24.580,43703.637
6,10 Jan 2030 19:42:44.819,11 Jan 2030 07:49:28.193,43603.374
7,11 Jan 2030 08:58:35.911,11 Jan 2030 21:07:11.043,43715.131
8,11 Jan 2030 22:12:43.381,12 Jan 2030 10:26:54.156,44050.775
9,12 Jan 2030 11:25:00.300,12 Jan 2030 23:49:32.094,44671.794
10,13 Jan 2030 00:34:45.880,13 Jan 2030 13:19:26.352,45880.472
11,13 Jan 2030 13:37:52.100,23 Jan 2030 00:00:55.499,814983.400
12,23 Jan 2030 00:19:06.641,23 Jan 2030 13:04:37.161,45930.520
13,23 Jan 2030 13:52:33.907,24 Jan 2030 02:16:12.623,44618.716
14,24 Jan 2030 03:17:27.510,24 Jan 2030 15:30:51.723,44004.213
15,24 Jan 2030 16:38:52.743,25 Jan 2030 04:47:53.175,43740.432
16,25 Jan 2030 05:57:47.176,25 Jan 2030 18:07:16.909,43769.733
17,25 Jan 2030 19:14:28.006,26 Jan 2030 07:29:29.596,44101.590
18,26 Jan 2030 08:28:46.180,26 Jan 2030 20:55:53.303,44827.123
19,26 Jan 2030 21:39:37.424,28 Jan 2030 11:00:00.000,134422.576

