dtn_data/2_1_2/0to6.csv

"Access","Start Time (UTCG)","Stop Time (UTCG)","Duration (sec)"
1,1 Jan 2030 04:28:11.920,1 Jan 2030 09:24:25.433,17773.513
2,1 Jan 2030 17:50:22.818,1 Jan 2030 22:46:19.253,17756.435
3,2 Jan 2030 07:12:19.287,2 Jan 2030 12:08:29.034,17769.747
4,2 Jan 2030 20:33:50.122,3 Jan 2030 01:30:42.045,17811.923
5,3 Jan 2030 09:54:47.107,3 Jan 2030 14:52:45.420,17878.312
6,3 Jan 2030 23:15:05.682,4 Jan 2030 04:14:27.802,17962.120
7,4 Jan 2030 12:34:44.882,4 Jan 2030 17:35:40.530,18055.648
8,5 Jan 2030 01:53:46.781,5 Jan 2030 06:56:18.175,18151.394
9,5 Jan 2030 15:12:15.709,5 Jan 2030 20:16:18.484,18242.775
10,6 Jan 2030 04:30:17.466,6 Jan 2030 09:35:41.941,18324.475
11,6 Jan 2030 17:47:58.733,6 Jan 2030 22:54:31.186,18392.453
12,7 Jan 2030 07:05:26.613,7 Jan 2030 12:12:50.422,18443.809
13,7 Jan 2030 20:22:48.347,8 Jan 2030 01:30:44.955,18476.608
14,8 Jan 2030 09:40:11.157,8 Jan 2030 14:48:20.811,18489.655
15,8 Jan 2030 22:57:42.141,9 Jan 2030 04:05:44.525,18482.384
16,9 Jan 2030 12:15:28.189,9 Jan 2030 17:23:02.978,18454.789
17,10 Jan 2030 01:33:35.871,10 Jan 2030 06:40:23.330,18407.459
18,10 Jan 2030 14:52:11.255,10 Jan 2030 19:57:52.900,18341.646
19,11 Jan 2030 04:11:19.619,11 Jan 2030 09:15:39.098,18259.479
20,11 Jan 2030 17:31:05.018,11 Jan 2030 22:33:49.213,18164.195
21,12 Jan 2030 06:51:29.747,12 Jan 2030 11:52:30.089,18060.342
22,12 Jan 2030 20:12:33.632,13 Jan 2030 01:11:47.600,17953.968
23,13 Jan 2030 09:34:13.406,13 Jan 2030 14:31:45.919,17852.513
24,13 Jan 2030 22:56:22.273,14 Jan 2030 03:52:26.632,17764.359
25,14 Jan 2030 12:18:49.978,14 Jan 2030 17:13:47.865,17697.887
26,15 Jan 2030 01:41:23.597,15 Jan 2030 06:35:43.733,17660.136
27,15 Jan 2030 15:03:49.043,15 Jan 2030 19:58:04.430,17655.387
28,16 Jan 2030 04:25:52.987,16 Jan 2030 09:20:37.181,17684.194
29,16 Jan 2030 17:47:24.664,16 Jan 2030 22:43:07.914,17743.250
30,17 Jan 2030 07:08:17.051,17 Jan 2030 12:05:23.201,17826.150
31,17 Jan 2030 20:28:27.188,18 Jan 2030 01:27:11.933,17924.745
32,18 Jan 2030 09:47:55.777,18 Jan 2030 14:48:26.313,18030.536
33,18 Jan 2030 23:06:46.362,19 Jan 2030 04:09:02.121,18135.759
34,19 Jan 2030 12:25:04.430,19 Jan 2030 17:28:58.381,18233.951
35,20 Jan 2030 01:42:56.604,20 Jan 2030 06:48:16.764,18320.160
36,20 Jan 2030 15:00:30.094,20 Jan 2030 20:07:00.899,18390.805
37,21 Jan 2030 04:17:52.301,21 Jan 2030 09:25:15.772,18443.472
38,21 Jan 2030 17:35:10.585,21 Jan 2030 22:43:07.273,18476.688
39,22 Jan 2030 06:52:32.152,22 Jan 2030 12:00:41.844,18489.692
40,22 Jan 2030 20:10:03.965,23 Jan 2030 01:18:06.299,18482.334
41,23 Jan 2030 09:27:52.663,23 Jan 2030 14:35:27.683,18455.020
42,23 Jan 2030 22:46:04.433,24 Jan 2030 03:52:53.199,18408.766
43,24 Jan 2030 12:04:44.803,24 Jan 2030 17:10:30.083,18345.280
44,25 Jan 2030 01:23:58.323,25 Jan 2030 06:28:25.493,18267.171
45,25 Jan 2030 14:43:48.107,25 Jan 2030 19:46:46.254,18178.146
46,26 Jan 2030 04:04:15.316,26 Jan 2030 09:05:38.461,18083.145
47,26 Jan 2030 17:25:18.493,26 Jan 2030 22:25:06.916,17988.422
48,27 Jan 2030 06:46:53.138,27 Jan 2030 11:45:14.401,17901.262
49,27 Jan 2030 20:08:51.472,28 Jan 2030 01:06:00.857,17829.385
50,28 Jan 2030 09:31:02.814,28 Jan 2030 14:27:22.763,17779.949
51,28 Jan 2030 22:53:14.587,29 Jan 2030 00:00:00.000,4005.413

