dtn_data/2_1_2/0to7.csv

"Access","Start Time (UTCG)","Stop Time (UTCG)","Duration (sec)"
1,1 Jan 2030 11:09:18.389,1 Jan 2030 16:05:19.606,17761.217
2,2 Jan 2030 00:31:23.614,2 Jan 2030 05:27:22.920,17759.306
3,2 Jan 2030 13:53:08.503,2 Jan 2030 18:49:35.957,17787.454
4,3 Jan 2030 03:14:23.219,3 Jan 2030 08:11:45.699,17842.480
5,3 Jan 2030 16:35:01.336,3 Jan 2030 21:33:39.849,17918.513
6,4 Jan 2030 05:55:00.137,4 Jan 2030 10:55:08.290,18008.153
7,4 Jan 2030 19:14:20.267,5 Jan 2030 00:16:03.949,18103.682
8,5 Jan 2030 08:33:05.028,5 Jan 2030 13:36:23.024,18197.996
9,5 Jan 2030 21:51:19.581,6 Jan 2030 02:56:04.697,18285.116
10,6 Jan 2030 11:09:10.223,6 Jan 2030 16:15:10.608,18360.385
11,7 Jan 2030 00:26:43.895,7 Jan 2030 05:33:44.245,18420.351
12,7 Jan 2030 13:44:07.795,7 Jan 2030 18:51:50.415,18462.620
13,8 Jan 2030 03:01:29.170,8 Jan 2030 08:09:34.819,18485.649
14,8 Jan 2030 16:18:55.190,8 Jan 2030 21:27:03.763,18488.572
15,9 Jan 2030 05:36:32.862,9 Jan 2030 10:44:23.969,18471.107
16,9 Jan 2030 18:54:28.933,10 Jan 2030 00:01:42.465,18433.533
17,10 Jan 2030 08:12:49.747,10 Jan 2030 13:19:06.500,18376.752
18,10 Jan 2030 21:31:41.026,11 Jan 2030 02:36:43.459,18302.433
19,11 Jan 2030 10:51:07.499,11 Jan 2030 15:54:40.723,18213.224
20,12 Jan 2030 00:11:12.411,12 Jan 2030 05:13:05.408,18112.997
21,12 Jan 2030 13:31:56.919,12 Jan 2030 18:32:03.955,18007.036
22,13 Jan 2030 02:53:19.373,13 Jan 2030 07:51:41.488,17902.115
23,13 Jan 2030 16:15:14.768,13 Jan 2030 21:12:01.003,17806.235
24,14 Jan 2030 05:37:34.530,14 Jan 2030 10:33:02.454,17727.924
25,14 Jan 2030 19:00:06.923,14 Jan 2030 23:54:41.998,17675.074
26,15 Jan 2030 08:22:38.216,15 Jan 2030 13:16:51.723,17653.508
27,15 Jan 2030 21:44:54.453,16 Jan 2030 02:39:20.171,17665.718
28,16 Jan 2030 11:06:43.393,16 Jan 2030 16:01:53.676,17710.283
29,17 Jan 2030 00:27:56.047,17 Jan 2030 05:24:18.252,17782.205
30,17 Jan 2030 13:48:27.434,17 Jan 2030 18:46:21.457,17874.023
31,18 Jan 2030 03:08:16.510,18 Jan 2030 08:07:53.764,17977.253
32,18 Jan 2030 16:27:25.517,18 Jan 2030 21:28:49.170,18083.654
33,19 Jan 2030 05:45:59.063,19 Jan 2030 10:49:05.144,18186.080
34,19 Jan 2030 19:04:03.312,20 Jan 2030 00:08:42.119,18278.807
35,20 Jan 2030 08:21:45.223,20 Jan 2030 13:27:42.826,18357.603
36,20 Jan 2030 21:39:12.145,21 Jan 2030 02:46:11.644,18419.499
37,21 Jan 2030 10:56:31.478,21 Jan 2030 16:04:14.053,18462.575
38,22 Jan 2030 00:13:50.516,22 Jan 2030 05:21:56.255,18485.739
39,22 Jan 2030 13:31:16.354,22 Jan 2030 18:39:24.900,18488.546
40,23 Jan 2030 02:48:55.804,23 Jan 2030 07:56:46.929,18471.125
41,23 Jan 2030 16:06:55.300,23 Jan 2030 21:14:09.474,18434.174
42,24 Jan 2030 05:25:20.731,24 Jan 2030 10:31:39.768,18379.037
43,24 Jan 2030 18:44:17.185,24 Jan 2030 23:49:25.034,18307.849
44,25 Jan 2030 08:03:48.559,25 Jan 2030 13:07:32.301,18223.742
45,25 Jan 2030 21:23:57.055,26 Jan 2030 02:26:08.088,18131.032
46,26 Jan 2030 10:44:42.611,26 Jan 2030 15:45:17.927,18035.316
47,27 Jan 2030 00:06:02.293,27 Jan 2030 05:05:05.710,17943.416
48,27 Jan 2030 13:27:49.952,27 Jan 2030 18:25:32.891,17862.938
49,28 Jan 2030 02:49:56.274,28 Jan 2030 07:46:37.745,17801.471
50,28 Jan 2030 16:12:09.467,28 Jan 2030 21:08:14.890,17765.423

