dtn_data/2_1_2/1to7.csv

"Access","Start Time (UTCG)","Stop Time (UTCG)","Duration (sec)"
1,1 Jan 2030 06:01:25.308,1 Jan 2030 08:50:09.031,10123.723
2,1 Jan 2030 19:04:32.168,1 Jan 2030 21:50:21.410,9949.242
3,2 Jan 2030 08:07:10.076,2 Jan 2030 10:50:42.184,9812.108
4,2 Jan 2030 21:09:18.536,2 Jan 2030 23:51:17.270,9718.735
5,3 Jan 2030 10:10:58.253,3 Jan 2030 12:52:12.045,9673.793
6,3 Jan 2030 23:12:11.298,4 Jan 2030 01:53:30.929,9679.631
7,4 Jan 2030 12:13:01.107,4 Jan 2030 14:55:17.080,9735.974
8,5 Jan 2030 01:13:32.332,5 Jan 2030 03:57:32.273,9839.941
9,5 Jan 2030 14:13:50.514,5 Jan 2030 17:00:16.950,9986.436
10,6 Jan 2030 03:14:01.659,6 Jan 2030 06:03:30.420,10168.761
11,6 Jan 2030 16:14:11.798,6 Jan 2030 19:07:11.103,10379.305
12,7 Jan 2030 05:14:26.599,7 Jan 2030 08:11:16.852,10610.254
13,7 Jan 2030 18:14:51.080,7 Jan 2030 21:15:45.195,10854.115
14,8 Jan 2030 07:15:29.434,8 Jan 2030 10:20:33.538,11104.104
15,8 Jan 2030 20:16:24.971,8 Jan 2030 23:25:39.312,11354.340
16,9 Jan 2030 09:17:40.114,9 Jan 2030 12:31:00.057,11599.943
17,9 Jan 2030 22:19:16.492,10 Jan 2030 01:36:33.467,11836.975
18,10 Jan 2030 11:21:15.030,10 Jan 2030 14:42:17.412,12062.382
19,11 Jan 2030 00:23:36.051,11 Jan 2030 03:48:09.935,12273.883
20,11 Jan 2030 13:26:19.410,11 Jan 2030 16:54:09.220,12469.810
21,12 Jan 2030 02:29:24.601,12 Jan 2030 06:00:13.592,12648.991
22,12 Jan 2030 15:32:50.803,12 Jan 2030 19:06:21.491,12810.688
23,13 Jan 2030 04:36:37.021,13 Jan 2030 08:12:31.443,12954.422
24,13 Jan 2030 17:40:42.086,13 Jan 2030 21:18:42.060,13079.974
25,14 Jan 2030 06:45:04.748,14 Jan 2030 10:24:51.982,13187.234
26,14 Jan 2030 19:49:43.688,14 Jan 2030 23:30:59.898,13276.209
27,15 Jan 2030 08:54:37.556,15 Jan 2030 12:37:04.530,13346.975
28,15 Jan 2030 21:59:44.987,16 Jan 2030 01:43:04.588,13399.601
29,16 Jan 2030 11:05:04.622,16 Jan 2030 14:48:58.795,13434.173
30,17 Jan 2030 00:10:35.111,17 Jan 2030 03:54:45.878,13450.767
31,17 Jan 2030 13:16:15.120,17 Jan 2030 17:00:24.531,13449.410
32,18 Jan 2030 02:22:03.335,18 Jan 2030 06:05:53.448,13430.113
33,18 Jan 2030 15:27:58.457,18 Jan 2030 19:11:11.303,13392.846
34,19 Jan 2030 04:33:59.203,19 Jan 2030 08:16:16.771,13337.567
35,19 Jan 2030 17:40:04.297,19 Jan 2030 21:21:08.492,13264.195
36,20 Jan 2030 06:46:12.466,20 Jan 2030 10:25:45.128,13172.662
37,20 Jan 2030 19:52:22.427,20 Jan 2030 23:30:05.354,13062.927
38,21 Jan 2030 08:58:32.879,21 Jan 2030 12:34:07.875,12934.995
39,21 Jan 2030 22:04:42.477,22 Jan 2030 01:37:51.476,12788.999
40,22 Jan 2030 11:10:49.839,22 Jan 2030 14:41:15.020,12625.181
41,23 Jan 2030 00:16:53.501,23 Jan 2030 03:44:17.546,12444.045
42,23 Jan 2030 13:22:51.912,23 Jan 2030 16:46:58.282,12246.370
43,24 Jan 2030 02:28:43.414,24 Jan 2030 05:49:16.758,12033.345
44,24 Jan 2030 15:34:26.194,24 Jan 2030 18:51:12.874,11806.681
45,25 Jan 2030 04:39:58.310,25 Jan 2030 07:52:47.012,11568.703
46,25 Jan 2030 17:45:17.632,25 Jan 2030 20:54:00.141,11322.509
47,26 Jan 2030 06:50:21.859,26 Jan 2030 09:54:53.937,11072.078
48,26 Jan 2030 19:55:08.541,26 Jan 2030 22:55:30.887,10822.346
49,27 Jan 2030 08:59:35.109,27 Jan 2030 11:55:54.327,10579.217
50,27 Jan 2030 22:03:38.979,28 Jan 2030 00:56:08.498,10349.518
51,28 Jan 2030 11:07:17.689,28 Jan 2030 13:56:18.441,10140.751

