dtn_data/2_1_2/5to7.csv

"Access","Start Time (UTCG)","Stop Time (UTCG)","Duration (sec)"
1,1 Jan 2030 04:00:00.000,1 Jan 2030 04:16:47.783,1007.783
2,1 Jan 2030 05:22:20.474,1 Jan 2030 06:49:17.296,5216.822
3,1 Jan 2030 07:56:53.731,1 Jan 2030 09:23:12.964,5179.233
4,1 Jan 2030 10:28:38.556,1 Jan 2030 11:52:18.470,5019.914
5,1 Jan 2030 12:58:50.929,1 Jan 2030 14:27:36.599,5325.670
6,1 Jan 2030 15:34:19.448,1 Jan 2030 16:58:11.799,5032.350
7,1 Jan 2030 18:03:34.114,1 Jan 2030 19:29:29.195,5155.081
8,1 Jan 2030 20:37:02.852,1 Jan 2030 22:04:22.441,5239.589
9,1 Jan 2030 23:10:01.060,2 Jan 2030 00:33:20.642,4999.582
10,2 Jan 2030 01:39:27.921,2 Jan 2030 03:07:54.031,5306.110
11,2 Jan 2030 04:15:02.511,2 Jan 2030 05:39:36.981,5074.470
12,2 Jan 2030 06:44:55.059,2 Jan 2030 08:09:52.052,5096.993
13,2 Jan 2030 09:17:10.243,2 Jan 2030 10:45:19.911,5289.669
14,2 Jan 2030 11:51:17.395,2 Jan 2030 13:14:33.442,4996.047
15,2 Jan 2030 14:20:19.755,2 Jan 2030 15:48:02.926,5263.171
16,2 Jan 2030 16:55:31.103,2 Jan 2030 18:20:59.790,5128.687
17,2 Jan 2030 19:26:19.730,2 Jan 2030 20:50:28.994,5049.264
18,2 Jan 2030 21:57:23.494,2 Jan 2030 23:26:03.095,5319.601
19,3 Jan 2030 00:32:24.316,3 Jan 2030 01:55:53.687,5009.371
20,3 Jan 2030 03:01:24.645,3 Jan 2030 04:28:10.468,5205.824
21,3 Jan 2030 05:35:47.200,3 Jan 2030 07:02:16.677,5189.477
22,3 Jan 2030 08:07:44.573,3 Jan 2030 09:31:20.333,5015.760
23,3 Jan 2030 10:37:48.499,3 Jan 2030 12:06:31.451,5322.952
24,3 Jan 2030 13:13:18.999,3 Jan 2030 14:37:17.979,5038.980
25,3 Jan 2030 15:42:39.644,3 Jan 2030 17:08:24.111,5144.467
26,3 Jan 2030 18:15:55.730,3 Jan 2030 19:43:24.182,5248.452
27,3 Jan 2030 20:49:06.090,3 Jan 2030 22:12:24.447,4998.357
28,3 Jan 2030 23:18:28.116,4 Jan 2030 00:46:47.173,5299.057
29,4 Jan 2030 01:53:59.581,4 Jan 2030 03:18:42.827,5083.246
30,4 Jan 2030 04:24:01.307,4 Jan 2030 05:48:49.385,5088.077
31,4 Jan 2030 06:56:03.868,4 Jan 2030 08:24:19.263,5295.396
32,4 Jan 2030 09:30:20.888,4 Jan 2030 10:53:38.623,4997.735
33,4 Jan 2030 11:59:22.310,4 Jan 2030 13:26:55.538,5253.228
34,4 Jan 2030 14:34:25.918,4 Jan 2030 16:00:04.691,5138.773
35,4 Jan 2030 17:05:26.080,4 Jan 2030 18:29:28.880,5042.800
36,4 Jan 2030 19:36:18.993,4 Jan 2030 21:04:59.883,5320.890
37,4 Jan 2030 22:11:25.785,4 Jan 2030 23:34:59.645,5013.860
38,5 Jan 2030 00:40:29.060,5 Jan 2030 02:07:03.884,5194.824
39,5 Jan 2030 03:14:40.491,5 Jan 2030 04:41:20.050,5199.558
40,5 Jan 2030 05:46:50.420,5 Jan 2030 07:10:22.533,5012.113
41,5 Jan 2030 08:16:46.506,5 Jan 2030 09:45:25.934,5319.428
42,5 Jan 2030 10:52:18.101,5 Jan 2030 12:16:24.106,5046.005
43,5 Jan 2030 13:21:45.308,5 Jan 2030 14:47:19.405,5134.097
44,5 Jan 2030 15:54:48.659,5 Jan 2030 17:22:25.504,5256.844
45,5 Jan 2030 18:28:10.858,5 Jan 2030 19:51:28.496,4997.637
46,5 Jan 2030 20:57:28.724,5 Jan 2030 22:25:40.146,5291.422
47,5 Jan 2030 23:32:56.224,6 Jan 2030 00:57:48.511,5092.287
48,6 Jan 2030 02:03:07.591,6 Jan 2030 03:27:47.142,5079.551
49,6 Jan 2030 04:34:57.745,6 Jan 2030 06:03:18.148,5300.403
50,6 Jan 2030 07:09:24.036,6 Jan 2030 08:32:43.955,4999.919
51,6 Jan 2030 09:38:25.210,6 Jan 2030 11:05:48.210,5243.000
52,6 Jan 2030 12:13:20.411,6 Jan 2030 13:39:09.338,5148.927
53,6 Jan 2030 14:44:32.364,6 Jan 2030 16:08:29.179,5036.815
54,6 Jan 2030 17:15:14.892,6 Jan 2030 18:43:56.237,5321.345
55,6 Jan 2030 19:50:26.850,6 Jan 2030 21:14:05.653,5018.803
56,6 Jan 2030 22:19:33.713,6 Jan 2030 23:45:57.558,5183.845
57,7 Jan 2030 00:53:33.629,7 Jan 2030 02:20:23.081,5209.452
58,7 Jan 2030 03:25:56.101,7 Jan 2030 04:49:25.076,5008.975
59,7 Jan 2030 05:55:44.963,7 Jan 2030 07:24:20.095,5315.132
60,7 Jan 2030 08:31:16.766,7 Jan 2030 09:55:30.176,5053.410
61,7 Jan 2030 11:00:51.099,7 Jan 2030 12:26:15.105,5124.006
62,7 Jan 2030 13:33:41.664,7 Jan 2030 15:01:26.408,5264.744
63,7 Jan 2030 16:07:15.360,7 Jan 2030 17:30:32.789,4997.429
64,7 Jan 2030 18:36:29.740,7 Jan 2030 20:04:32.974,5283.234
65,7 Jan 2030 21:11:52.452,7 Jan 2030 22:36:54.037,5101.585
66,7 Jan 2030 23:42:13.887,8 Jan 2030 01:06:45.343,5071.456
67,8 Jan 2030 02:13:51.922,8 Jan 2030 03:42:16.582,5304.660
68,8 Jan 2030 04:48:26.830,8 Jan 2030 06:11:49.416,5002.586
69,8 Jan 2030 07:17:28.419,8 Jan 2030 08:44:40.974,5232.555
70,8 Jan 2030 09:52:14.596,8 Jan 2030 11:18:13.717,5159.122
71,8 Jan 2030 12:23:38.546,8 Jan 2030 13:47:29.869,5031.323
72,8 Jan 2030 14:54:11.207,8 Jan 2030 16:22:52.159,5320.952
73,8 Jan 2030 17:29:27.487,8 Jan 2030 18:53:11.678,5024.191
74,8 Jan 2030 19:58:38.572,8 Jan 2030 21:24:51.538,5172.966
75,8 Jan 2030 22:32:26.667,8 Jan 2030 23:59:25.743,5219.076
76,9 Jan 2030 01:05:01.578,9 Jan 2030 02:28:27.927,5006.349
77,9 Jan 2030 03:34:43.854,9 Jan 2030 05:03:13.944,5310.090
78,9 Jan 2030 06:10:14.981,9 Jan 2030 07:34:36.156,5061.175
79,9 Jan 2030 08:39:56.986,9 Jan 2030 10:05:11.207,5114.221
80,9 Jan 2030 11:12:34.798,9 Jan 2030 12:40:26.873,5272.075
81,9 Jan 2030 13:46:19.568,9 Jan 2030 15:09:37.291,4997.723
82,9 Jan 2030 16:15:31.143,9 Jan 2030 17:43:25.710,5274.567
83,9 Jan 2030 18:50:48.282,9 Jan 2030 20:15:59.365,5111.083
84,9 Jan 2030 21:21:20.176,9 Jan 2030 22:45:43.965,5063.790
85,9 Jan 2030 23:52:46.409,10 Jan 2030 01:21:14.551,5308.141
86,10 Jan 2030 02:27:29.249,10 Jan 2030 03:50:54.985,5005.735
87,10 Jan 2030 04:56:31.937,10 Jan 2030 06:23:33.870,5221.933
88,10 Jan 2030 07:31:08.516,10 Jan 2030 08:57:17.803,5169.287
89,10 Jan 2030 10:02:44.626,10 Jan 2030 11:26:30.949,5026.324
90,10 Jan 2030 12:33:07.947,10 Jan 2030 14:01:47.678,5319.731
91,10 Jan 2030 15:08:27.705,10 Jan 2030 16:32:17.713,5030.008
92,10 Jan 2030 17:37:43.631,10 Jan 2030 19:03:45.830,5162.199
93,10 Jan 2030 20:11:19.629,10 Jan 2030 21:38:28.033,5228.405
94,10 Jan 2030 22:44:06.854,11 Jan 2030 00:07:31.087,5004.233
95,11 Jan 2030 01:13:43.187,11 Jan 2030 02:42:07.528,5304.342
96,11 Jan 2030 03:49:12.763,11 Jan 2030 05:13:42.042,5069.279
97,11 Jan 2030 06:19:02.962,11 Jan 2030 07:44:07.733,5104.771
98,11 Jan 2030 08:51:28.088,11 Jan 2030 10:19:26.903,5278.815
99,11 Jan 2030 11:25:23.479,11 Jan 2030 12:48:42.002,4998.522
100,11 Jan 2030 13:54:32.928,11 Jan 2030 15:22:18.383,5265.455
101,11 Jan 2030 16:29:43.723,11 Jan 2030 17:55:04.498,5120.775
102,11 Jan 2030 19:00:26.441,11 Jan 2030 20:24:43.023,5056.582
103,11 Jan 2030 21:31:41.246,11 Jan 2030 23:00:12.070,5310.824
104,12 Jan 2030 00:06:31.292,12 Jan 2030 01:30:00.651,5009.359
105,12 Jan 2030 02:35:35.729,12 Jan 2030 04:02:26.942,5211.213
106,12 Jan 2030 05:10:02.187,12 Jan 2030 06:36:21.593,5179.406
107,12 Jan 2030 07:41:50.570,12 Jan 2030 09:05:32.396,5021.826
108,12 Jan 2030 10:12:05.118,12 Jan 2030 11:40:42.798,5317.680
109,12 Jan 2030 12:47:27.480,12 Jan 2030 14:11:23.728,5036.248
110,12 Jan 2030 15:16:48.856,12 Jan 2030 16:42:40.476,5151.620
111,12 Jan 2030 17:50:12.571,12 Jan 2030 19:17:29.929,5237.358
112,12 Jan 2030 20:23:11.893,12 Jan 2030 21:46:34.522,5002.629
113,12 Jan 2030 22:52:42.942,13 Jan 2030 00:21:00.874,5297.932
114,13 Jan 2030 01:28:10.103,13 Jan 2030 02:52:47.800,5077.697
115,13 Jan 2030 03:58:08.994,13 Jan 2030 05:23:04.678,5095.684
116,13 Jan 2030 06:30:21.578,13 Jan 2030 07:58:26.481,5284.903
117,13 Jan 2030 09:04:27.065,13 Jan 2030 10:27:46.884,4999.819
118,13 Jan 2030 11:33:35.070,13 Jan 2030 13:01:11.048,5255.977
119,13 Jan 2030 14:08:38.810,13 Jan 2030 15:34:09.400,5130.589
120,13 Jan 2030 16:39:32.659,13 Jan 2030 18:03:42.492,5049.832
121,13 Jan 2030 19:10:36.442,13 Jan 2030 20:39:09.137,5312.695
122,13 Jan 2030 21:45:32.936,13 Jan 2030 23:09:06.392,5013.455
123,14 Jan 2030 00:14:39.794,14 Jan 2030 01:41:20.216,5200.422
124,14 Jan 2030 02:48:55.658,14 Jan 2030 04:15:25.053,5189.395
125,14 Jan 2030 05:20:56.371,14 Jan 2030 06:44:34.205,5017.834
126,14 Jan 2030 07:51:02.730,14 Jan 2030 09:19:37.557,5314.827
127,14 Jan 2030 10:26:26.829,14 Jan 2030 11:50:29.719,5042.890
128,14 Jan 2030 12:55:54.244,14 Jan 2030 14:21:35.477,5141.234
129,14 Jan 2030 15:29:05.516,14 Jan 2030 16:56:31.427,5245.911
130,14 Jan 2030 18:02:16.697,14 Jan 2030 19:25:38.231,5001.534
131,14 Jan 2030 20:31:43.123,14 Jan 2030 21:59:54.025,5290.902
132,14 Jan 2030 23:07:07.024,15 Jan 2030 00:31:53.431,5086.407
133,15 Jan 2030 01:37:15.077,15 Jan 2030 03:02:02.059,5086.982
134,15 Jan 2030 04:09:15.298,15 Jan 2030 05:37:25.614,5290.317
135,15 Jan 2030 06:43:30.326,15 Jan 2030 08:06:51.938,5001.612
136,15 Jan 2030 09:12:37.564,15 Jan 2030 10:40:03.730,5246.167
137,15 Jan 2030 11:47:33.546,15 Jan 2030 13:13:14.069,5140.523
138,15 Jan 2030 14:18:38.821,15 Jan 2030 15:42:42.381,5043.560
139,15 Jan 2030 16:49:32.026,15 Jan 2030 18:18:05.766,5313.741
140,15 Jan 2030 19:24:34.183,15 Jan 2030 20:48:12.192,5018.008
141,15 Jan 2030 21:53:44.095,15 Jan 2030 23:20:13.737,5189.642
142,16 Jan 2030 00:27:48.952,16 Jan 2030 01:54:28.187,5199.235
143,16 Jan 2030 03:00:02.002,16 Jan 2030 04:23:36.354,5014.352
144,16 Jan 2030 05:30:00.771,16 Jan 2030 06:58:31.965,5311.193
145,16 Jan 2030 08:05:25.728,16 Jan 2030 09:29:35.654,5049.926
146,16 Jan 2030 10:34:59.758,16 Jan 2030 12:00:30.869,5131.112
147,16 Jan 2030 13:07:58.522,16 Jan 2030 14:35:32.508,5253.986
148,16 Jan 2030 15:41:21.231,16 Jan 2030 17:04:42.181,5000.951
149,16 Jan 2030 18:10:43.707,16 Jan 2030 19:38:47.009,5283.302
150,16 Jan 2030 20:46:03.517,16 Jan 2030 22:10:58.898,5095.381
151,16 Jan 2030 23:16:21.181,17 Jan 2030 00:40:59.862,5078.681
152,17 Jan 2030 01:48:09.281,17 Jan 2030 03:16:24.288,5295.007
153,17 Jan 2030 04:22:33.232,17 Jan 2030 05:45:57.128,5003.896
154,17 Jan 2030 06:51:40.381,17 Jan 2030 08:18:56.487,5236.106
155,17 Jan 2030 09:26:27.975,17 Jan 2030 10:52:18.474,5150.499
156,17 Jan 2030 11:57:44.896,17 Jan 2030 13:21:42.664,5037.768
157,17 Jan 2030 14:28:28.003,17 Jan 2030 15:57:01.966,5313.963
158,17 Jan 2030 17:03:35.012,17 Jan 2030 18:27:18.023,5023.011
159,17 Jan 2030 19:32:48.630,17 Jan 2030 20:59:07.522,5178.892
160,17 Jan 2030 22:06:42.119,17 Jan 2030 23:33:30.961,5208.842
161,18 Jan 2030 00:39:07.460,18 Jan 2030 02:02:38.834,5011.373
162,18 Jan 2030 03:08:59.259,18 Jan 2030 04:37:26.060,5306.802
163,18 Jan 2030 05:44:24.198,18 Jan 2030 07:08:41.523,5057.326
164,18 Jan 2030 08:14:05.397,18 Jan 2030 09:39:26.648,5121.251
165,18 Jan 2030 10:46:51.612,18 Jan 2030 12:14:33.169,5261.558
166,18 Jan 2030 13:20:25.498,18 Jan 2030 14:43:46.369,5000.872
167,18 Jan 2030 15:49:44.695,18 Jan 2030 17:17:39.868,5275.173
168,18 Jan 2030 18:24:59.613,18 Jan 2030 19:50:04.198,5104.585
169,18 Jan 2030 20:55:27.298,18 Jan 2030 22:19:58.103,5070.805
170,18 Jan 2030 23:27:03.561,19 Jan 2030 00:55:22.515,5298.954
171,19 Jan 2030 02:01:35.787,19 Jan 2030 03:25:02.452,5006.665
172,19 Jan 2030 04:30:43.517,19 Jan 2030 05:57:49.340,5225.823
173,19 Jan 2030 07:05:22.106,19 Jan 2030 08:31:22.611,5160.506
174,19 Jan 2030 09:36:50.878,19 Jan 2030 11:00:43.347,5032.468
175,19 Jan 2030 12:07:24.398,19 Jan 2030 13:35:57.756,5313.359
176,19 Jan 2030 14:42:35.428,19 Jan 2030 16:06:23.882,5028.454
177,19 Jan 2030 17:11:53.368,19 Jan 2030 18:38:01.611,5168.244
178,19 Jan 2030 19:45:35.183,19 Jan 2030 21:12:33.380,5218.197
179,19 Jan 2030 22:18:12.712,19 Jan 2030 23:41:41.622,5008.911
180,20 Jan 2030 00:47:58.175,20 Jan 2030 02:16:19.863,5301.688
181,20 Jan 2030 03:23:22.219,20 Jan 2030 04:47:47.303,5065.084
182,20 Jan 2030 05:53:11.124,20 Jan 2030 07:18:22.843,5111.719
183,20 Jan 2030 08:25:44.839,20 Jan 2030 09:53:33.396,5268.557
184,20 Jan 2030 10:59:29.463,20 Jan 2030 12:22:50.765,5001.301
185,20 Jan 2030 13:28:46.062,20 Jan 2030 14:56:32.646,5266.584
186,20 Jan 2030 16:03:55.311,20 Jan 2030 17:29:09.301,5113.990
187,20 Jan 2030 18:34:33.397,20 Jan 2030 19:58:56.761,5063.364
188,20 Jan 2030 21:05:58.155,20 Jan 2030 22:34:20.284,5302.129
189,20 Jan 2030 23:40:37.961,21 Jan 2030 01:04:07.875,5009.914
190,21 Jan 2030 02:09:46.941,21 Jan 2030 03:36:42.346,5215.405
191,21 Jan 2030 04:44:15.986,21 Jan 2030 06:10:26.451,5170.465
192,21 Jan 2030 07:15:56.739,21 Jan 2030 08:39:44.400,5027.661
193,21 Jan 2030 09:46:21.203,21 Jan 2030 11:14:53.144,5311.941
194,21 Jan 2030 12:21:35.410,21 Jan 2030 13:45:29.731,5034.321
195,21 Jan 2030 14:50:58.294,21 Jan 2030 16:16:56.017,5157.723
196,21 Jan 2030 17:24:28.196,21 Jan 2030 18:51:35.411,5227.215
197,21 Jan 2030 19:57:17.751,21 Jan 2030 21:20:44.709,5006.958
198,21 Jan 2030 22:26:57.521,21 Jan 2030 23:55:13.416,5295.896
199,22 Jan 2030 01:02:19.816,22 Jan 2030 02:26:52.974,5073.158
200,22 Jan 2030 03:32:16.938,22 Jan 2030 04:57:19.444,5102.507
201,22 Jan 2030 06:04:38.227,22 Jan 2030 07:32:33.188,5274.962
202,22 Jan 2030 08:38:33.132,22 Jan 2030 10:01:55.360,5002.229
203,22 Jan 2030 11:07:47.806,22 Jan 2030 12:35:25.377,5257.572
204,22 Jan 2030 13:42:50.644,22 Jan 2030 15:08:14.200,5123.556
205,22 Jan 2030 16:13:39.473,22 Jan 2030 17:37:55.849,5056.376
206,22 Jan 2030 18:44:53.092,22 Jan 2030 20:13:17.613,5304.521
207,22 Jan 2030 21:19:39.761,22 Jan 2030 22:43:13.396,5013.635
208,22 Jan 2030 23:48:50.649,23 Jan 2030 01:15:35.522,5204.873
209,23 Jan 2030 02:23:09.630,23 Jan 2030 03:49:29.989,5180.359
210,23 Jan 2030 04:55:02.474,23 Jan 2030 06:18:45.829,5023.355
211,23 Jan 2030 07:25:18.445,23 Jan 2030 08:53:48.155,5309.710
212,23 Jan 2030 10:00:34.968,23 Jan 2030 11:24:35.572,5040.604
213,23 Jan 2030 12:30:03.384,23 Jan 2030 13:55:50.776,5147.392
214,23 Jan 2030 15:03:21.189,23 Jan 2030 16:30:37.060,5235.872
215,23 Jan 2030 17:36:22.560,23 Jan 2030 18:59:48.073,5005.513
216,23 Jan 2030 20:05:57.288,23 Jan 2030 21:34:06.743,5289.455
217,23 Jan 2030 22:41:16.975,24 Jan 2030 00:05:58.531,5081.555
218,24 Jan 2030 01:11:22.801,24 Jan 2030 02:36:16.476,5093.675
219,24 Jan 2030 03:43:31.823,24 Jan 2030 05:11:32.534,5280.711
220,24 Jan 2030 06:17:36.469,24 Jan 2030 07:41:00.126,5003.657
221,24 Jan 2030 08:46:49.898,24 Jan 2030 10:14:18.111,5248.213
222,24 Jan 2030 11:21:45.619,24 Jan 2030 12:47:18.866,5133.247
223,24 Jan 2030 13:52:45.492,24 Jan 2030 15:16:55.342,5049.850
224,24 Jan 2030 16:23:48.390,24 Jan 2030 17:52:14.496,5306.106
225,24 Jan 2030 18:58:41.158,24 Jan 2030 20:22:18.978,5017.820
226,24 Jan 2030 21:27:54.606,24 Jan 2030 22:54:28.921,5194.315
227,25 Jan 2030 00:02:03.091,25 Jan 2030 01:28:33.199,5190.109
228,25 Jan 2030 02:34:08.048,25 Jan 2030 03:57:47.601,5019.553
229,25 Jan 2030 05:04:16.108,25 Jan 2030 06:32:42.810,5306.702
230,25 Jan 2030 07:39:34.085,25 Jan 2030 09:03:41.368,5047.282
231,25 Jan 2030 10:09:08.628,25 Jan 2030 11:34:45.894,5137.265
232,25 Jan 2030 12:42:14.207,25 Jan 2030 14:09:38.298,5244.091
233,25 Jan 2030 15:15:27.118,25 Jan 2030 16:38:51.699,5004.581
234,25 Jan 2030 17:44:57.468,25 Jan 2030 19:12:59.892,5282.424
235,25 Jan 2030 20:20:13.724,25 Jan 2030 21:45:03.936,5090.212
236,25 Jan 2030 22:50:28.714,26 Jan 2030 00:15:13.924,5085.210
237,26 Jan 2030 01:22:25.649,26 Jan 2030 02:50:31.437,5285.787
238,26 Jan 2030 03:56:39.480,26 Jan 2030 05:20:05.058,5005.578
239,26 Jan 2030 06:25:52.338,26 Jan 2030 07:53:10.876,5238.539
240,26 Jan 2030 09:00:40.272,26 Jan 2030 10:26:23.295,5143.023
241,26 Jan 2030 11:31:51.454,26 Jan 2030 12:55:55.252,5043.798
242,26 Jan 2030 14:02:44.073,26 Jan 2030 15:31:10.956,5306.883
243,26 Jan 2030 16:37:42.160,26 Jan 2030 18:01:24.621,5022.461
244,26 Jan 2030 19:06:58.810,26 Jan 2030 20:33:22.557,5183.747
245,26 Jan 2030 21:40:56.384,26 Jan 2030 23:07:36.076,5199.692
246,27 Jan 2030 00:13:13.461,27 Jan 2030 01:36:49.721,5016.260
247,27 Jan 2030 02:43:14.212,27 Jan 2030 04:11:37.135,5302.923
248,27 Jan 2030 05:18:32.773,27 Jan 2030 06:42:47.118,5054.344
249,27 Jan 2030 07:48:14.003,27 Jan 2030 09:13:41.397,5127.394
250,27 Jan 2030 10:21:07.287,27 Jan 2030 11:48:39.133,5251.846
251,27 Jan 2030 12:54:31.415,27 Jan 2030 14:17:55.569,5004.154
252,27 Jan 2030 15:23:58.051,27 Jan 2030 16:51:52.887,5274.836
253,27 Jan 2030 17:59:10.055,27 Jan 2030 19:24:09.187,5099.133
254,27 Jan 2030 20:29:34.638,27 Jan 2030 21:54:11.804,5077.166
255,27 Jan 2030 23:01:19.749,28 Jan 2030 00:29:29.888,5290.139
256,28 Jan 2030 01:35:42.132,28 Jan 2030 02:59:10.123,5007.991
257,28 Jan 2030 04:04:55.093,28 Jan 2030 05:32:03.728,5228.635
258,28 Jan 2030 06:39:34.613,28 Jan 2030 08:05:27.456,5152.843
259,28 Jan 2030 09:10:57.321,28 Jan 2030 10:34:55.549,5038.227
260,28 Jan 2030 11:41:40.145,28 Jan 2030 13:10:06.992,5306.847
261,28 Jan 2030 14:16:42.741,28 Jan 2030 15:40:30.289,5027.548
262,28 Jan 2030 16:46:03.229,28 Jan 2030 18:12:16.477,5173.248
263,28 Jan 2030 19:19:49.567,28 Jan 2030 20:46:38.596,5209.029
264,28 Jan 2030 21:52:18.682,28 Jan 2030 23:15:52.154,5013.472

