dtn_data/3_1/0to6.csv

"Access","Start Time (UTCG)","Stop Time (UTCG)","Duration (sec)"
1,1 Jan 2030 07:07:31.889,1 Jan 2030 12:43:39.460,20167.570
2,1 Jan 2030 20:32:43.340,2 Jan 2030 02:09:13.737,20190.398
3,2 Jan 2030 09:58:27.348,2 Jan 2030 15:35:00.692,20193.344
4,2 Jan 2030 23:24:09.857,3 Jan 2030 05:00:26.462,20176.605
5,3 Jan 2030 12:49:19.748,3 Jan 2030 18:24:59.136,20139.388
6,4 Jan 2030 02:13:34.776,4 Jan 2030 07:48:15.011,20080.235
7,4 Jan 2030 15:36:43.809,4 Jan 2030 21:10:01.325,19997.516
8,5 Jan 2030 04:58:45.581,5 Jan 2030 10:30:15.394,19889.812
9,5 Jan 2030 18:19:45.761,5 Jan 2030 23:49:01.833,19756.072
10,6 Jan 2030 07:39:53.984,6 Jan 2030 13:06:29.507,19595.523
11,6 Jan 2030 20:59:21.660,7 Jan 2030 02:22:49.211,19407.550
12,7 Jan 2030 10:18:20.645,7 Jan 2030 15:38:12.154,19191.509
13,7 Jan 2030 23:37:02.580,8 Jan 2030 04:52:49.213,18946.633
14,8 Jan 2030 12:55:38.645,8 Jan 2030 18:06:50.641,18671.996
15,9 Jan 2030 02:14:19.517,9 Jan 2030 07:20:26.056,18366.540
16,9 Jan 2030 15:33:15.408,9 Jan 2030 20:33:44.623,18029.215
17,10 Jan 2030 04:52:36.067,10 Jan 2030 09:46:55.294,17659.227
18,10 Jan 2030 18:12:30.669,10 Jan 2030 23:00:07.136,17256.467
19,11 Jan 2030 07:33:07.485,11 Jan 2030 12:13:29.663,16822.178
20,11 Jan 2030 20:54:33.255,12 Jan 2030 01:27:13.197,16359.943
21,12 Jan 2030 10:16:52.139,12 Jan 2030 14:41:29.182,15877.043
22,12 Jan 2030 23:40:04.215,13 Jan 2030 03:56:30.351,15386.136
23,13 Jan 2030 13:04:03.651,13 Jan 2030 17:12:30.562,14906.911
24,14 Jan 2030 02:28:37.019,14 Jan 2030 06:29:43.984,14466.965
25,14 Jan 2030 15:53:22.682,14 Jan 2030 19:48:23.240,14100.558
26,15 Jan 2030 05:17:52.407,15 Jan 2030 09:08:36.365,13843.957
27,15 Jan 2030 18:41:35.789,15 Jan 2030 22:30:23.090,13727.301
28,16 Jan 2030 08:04:06.444,16 Jan 2030 11:53:32.075,13765.630
29,16 Jan 2030 21:25:07.385,17 Jan 2030 01:17:41.101,13953.715
30,17 Jan 2030 10:44:33.101,17 Jan 2030 14:42:21.024,14267.922
31,18 Jan 2030 00:02:28.025,18 Jan 2030 04:07:01.918,14673.893
32,18 Jan 2030 13:19:02.988,18 Jan 2030 17:31:18.603,15135.615
33,19 Jan 2030 02:34:31.753,19 Jan 2030 06:54:53.627,15621.874
34,19 Jan 2030 15:49:08.509,19 Jan 2030 20:17:37.634,16109.126
35,20 Jan 2030 05:03:06.618,20 Jan 2030 09:39:28.032,16581.414
36,20 Jan 2030 18:16:38.166,20 Jan 2030 23:00:27.187,17029.020
37,21 Jan 2030 07:29:54.004,21 Jan 2030 12:20:40.720,17446.716
38,21 Jan 2030 20:43:04.007,22 Jan 2030 01:40:16.240,17832.234
39,22 Jan 2030 09:56:17.419,22 Jan 2030 14:59:22.526,18185.107
40,22 Jan 2030 23:09:43.208,23 Jan 2030 04:18:09.058,18505.850
41,23 Jan 2030 12:23:30.396,23 Jan 2030 17:36:45.825,18795.429
42,24 Jan 2030 01:37:48.343,24 Jan 2030 06:55:23.272,19054.929
43,24 Jan 2030 14:52:46.974,24 Jan 2030 20:14:12.338,19285.365
44,25 Jan 2030 04:08:36.862,25 Jan 2030 09:33:24.472,19487.611
45,25 Jan 2030 17:25:29.111,25 Jan 2030 22:53:11.502,19662.391
46,26 Jan 2030 06:43:34.844,26 Jan 2030 12:13:45.213,19810.370
47,26 Jan 2030 20:03:04.109,27 Jan 2030 01:35:16.379,19932.270
48,27 Jan 2030 09:24:03.953,27 Jan 2030 14:57:52.995,20029.042
49,27 Jan 2030 22:46:35.680,28 Jan 2030 04:21:37.648,20101.968

