dtn_data/3_1/1to6.csv

"Access","Start Time (UTCG)","Stop Time (UTCG)","Duration (sec)"
1,1 Jan 2030 07:47:55.368,1 Jan 2030 13:00:19.587,18744.219
2,1 Jan 2030 20:52:42.704,2 Jan 2030 02:05:53.402,18790.698
3,2 Jan 2030 09:57:39.904,2 Jan 2030 15:11:26.998,18827.094
4,2 Jan 2030 23:02:45.879,3 Jan 2030 04:16:59.087,18853.208
5,3 Jan 2030 12:07:59.499,3 Jan 2030 17:22:28.395,18868.896
6,4 Jan 2030 01:13:19.590,4 Jan 2030 06:27:53.664,18874.074
7,4 Jan 2030 14:18:44.950,4 Jan 2030 19:33:13.659,18868.709
8,5 Jan 2030 03:24:14.346,5 Jan 2030 08:38:27.169,18852.822
9,5 Jan 2030 16:29:46.521,5 Jan 2030 21:43:33.010,18826.489
10,6 Jan 2030 05:35:20.192,6 Jan 2030 10:48:30.036,18789.844
11,6 Jan 2030 18:40:54.060,6 Jan 2030 23:53:17.149,18743.089
12,7 Jan 2030 07:46:26.809,7 Jan 2030 12:57:53.295,18686.485
13,7 Jan 2030 20:51:57.105,8 Jan 2030 02:02:17.511,18620.406
14,8 Jan 2030 09:57:23.591,8 Jan 2030 15:06:28.889,18545.299
15,8 Jan 2030 23:02:44.912,9 Jan 2030 04:10:26.646,18461.734
16,9 Jan 2030 12:07:59.699,9 Jan 2030 17:14:10.121,18370.422
17,10 Jan 2030 01:13:06.589,10 Jan 2030 06:17:38.808,18272.220
18,10 Jan 2030 14:18:04.209,10 Jan 2030 19:20:52.390,18168.181
19,11 Jan 2030 03:22:51.242,11 Jan 2030 08:23:50.769,18059.527
20,11 Jan 2030 16:27:26.398,11 Jan 2030 21:26:34.109,17947.712
21,12 Jan 2030 05:31:48.448,12 Jan 2030 10:29:02.863,17834.416
22,12 Jan 2030 18:35:56.286,12 Jan 2030 23:31:17.831,17721.545
23,13 Jan 2030 07:39:48.945,13 Jan 2030 12:33:20.138,17611.194
24,13 Jan 2030 20:43:25.647,14 Jan 2030 01:35:11.302,17505.655
25,14 Jan 2030 09:46:45.867,14 Jan 2030 14:36:53.197,17407.330
26,14 Jan 2030 22:49:49.382,15 Jan 2030 03:38:28.055,17318.673
27,15 Jan 2030 11:52:36.329,15 Jan 2030 16:39:58.381,17242.052
28,16 Jan 2030 00:55:07.255,16 Jan 2030 05:41:26.924,17179.669
29,16 Jan 2030 13:57:23.143,16 Jan 2030 18:42:56.560,17133.416
30,17 Jan 2030 02:59:25.430,17 Jan 2030 07:44:30.173,17104.743
31,17 Jan 2030 16:01:15.982,17 Jan 2030 20:46:10.566,17094.584
32,18 Jan 2030 05:02:57.057,18 Jan 2030 09:48:00.315,17103.258
33,18 Jan 2030 18:04:31.221,18 Jan 2030 22:50:01.693,17130.472
34,19 Jan 2030 07:06:01.256,19 Jan 2030 11:52:16.579,17175.323
35,19 Jan 2030 20:07:30.041,20 Jan 2030 00:54:46.422,17236.381
36,20 Jan 2030 09:09:00.439,20 Jan 2030 13:57:32.223,17311.783
37,20 Jan 2030 22:10:35.186,21 Jan 2030 03:00:34.533,17399.347
38,21 Jan 2030 11:12:16.799,21 Jan 2030 16:03:53.514,17496.715
39,22 Jan 2030 00:14:07.490,22 Jan 2030 05:07:28.957,17601.467
40,22 Jan 2030 13:16:09.137,22 Jan 2030 18:11:20.340,17711.203
41,23 Jan 2030 02:18:23.272,23 Jan 2030 07:15:26.903,17823.632
42,23 Jan 2030 15:20:51.024,23 Jan 2030 20:19:47.704,17936.680
43,24 Jan 2030 04:23:33.213,24 Jan 2030 09:24:21.643,18048.430
44,24 Jan 2030 17:26:30.293,24 Jan 2030 22:29:07.511,18157.219
45,25 Jan 2030 06:29:42.462,25 Jan 2030 11:34:04.039,18261.578
46,25 Jan 2030 19:33:09.633,26 Jan 2030 00:39:09.925,18360.292
47,26 Jan 2030 08:36:51.522,26 Jan 2030 13:44:23.819,18452.297
48,26 Jan 2030 21:40:47.646,27 Jan 2030 02:49:44.372,18536.725
49,27 Jan 2030 10:44:57.370,27 Jan 2030 15:55:10.236,18612.866
50,27 Jan 2030 23:49:19.934,28 Jan 2030 05:00:40.064,18680.130

