dtn_data/3_1/1to7.csv

"Access","Start Time (UTCG)","Stop Time (UTCG)","Duration (sec)"
1,1 Jan 2030 04:00:00.000,1 Jan 2030 08:17:59.418,15479.418
2,1 Jan 2030 16:10:37.846,1 Jan 2030 21:23:32.988,18775.142
3,2 Jan 2030 05:15:31.623,2 Jan 2030 10:29:06.810,18815.187
4,2 Jan 2030 18:20:34.573,2 Jan 2030 23:34:39.589,18845.016
5,3 Jan 2030 07:25:45.578,3 Jan 2030 12:40:10.042,18864.464
6,3 Jan 2030 20:31:03.480,4 Jan 2030 01:45:36.906,18873.426
7,4 Jan 2030 09:36:27.087,4 Jan 2030 14:50:58.938,18871.851
8,4 Jan 2030 22:41:55.176,5 Jan 2030 03:56:14.916,18859.740
9,5 Jan 2030 11:47:26.498,5 Jan 2030 17:01:23.647,18837.149
10,6 Jan 2030 00:52:59.780,6 Jan 2030 06:06:23.971,18804.192
11,6 Jan 2030 13:58:33.729,6 Jan 2030 19:11:14.771,18761.041
12,7 Jan 2030 03:04:07.032,7 Jan 2030 08:15:54.977,18707.945
13,7 Jan 2030 16:09:38.363,7 Jan 2030 21:20:23.587,18645.224
14,8 Jan 2030 05:15:06.375,8 Jan 2030 10:24:39.675,18573.300
15,8 Jan 2030 18:20:29.713,8 Jan 2030 23:28:42.410,18492.697
16,9 Jan 2030 07:25:47.008,9 Jan 2030 12:32:31.086,18404.078
17,9 Jan 2030 20:30:56.886,10 Jan 2030 01:36:05.133,18308.247
18,10 Jan 2030 09:35:57.999,10 Jan 2030 14:39:24.169,18206.170
19,10 Jan 2030 22:40:48.985,11 Jan 2030 03:42:28.007,18099.023
20,11 Jan 2030 11:45:28.551,11 Jan 2030 16:45:16.716,17988.165
21,12 Jan 2030 00:49:55.446,12 Jan 2030 05:47:50.640,17875.194
22,12 Jan 2030 13:54:08.514,12 Jan 2030 18:50:10.447,17761.933
23,13 Jan 2030 02:58:06.730,13 Jan 2030 07:52:17.154,17650.424
24,13 Jan 2030 16:01:49.242,13 Jan 2030 20:54:12.126,17542.884
25,14 Jan 2030 05:05:15.428,14 Jan 2030 09:55:57.116,17441.688
26,14 Jan 2030 18:08:24.951,14 Jan 2030 22:57:34.225,17349.274
27,15 Jan 2030 07:11:17.813,15 Jan 2030 11:59:05.873,17268.061
28,15 Jan 2030 20:13:54.407,16 Jan 2030 01:00:34.731,17200.324
29,16 Jan 2030 09:16:15.558,16 Jan 2030 14:02:03.640,17148.082
30,16 Jan 2030 22:18:22.540,17 Jan 2030 03:03:35.495,17112.955
31,17 Jan 2030 11:20:17.069,17 Jan 2030 16:05:13.140,17096.071
32,18 Jan 2030 00:22:01.269,18 Jan 2030 05:06:59.246,17097.978
33,18 Jan 2030 13:23:37.606,18 Jan 2030 18:08:56.205,17118.600
34,19 Jan 2030 02:25:08.796,19 Jan 2030 07:11:06.047,17157.252
35,19 Jan 2030 15:26:37.697,19 Jan 2030 20:13:30.376,17212.679
36,20 Jan 2030 04:28:07.191,20 Jan 2030 09:16:10.355,17283.164
37,20 Jan 2030 17:29:40.076,20 Jan 2030 22:19:06.697,17366.621
38,21 Jan 2030 06:31:18.946,21 Jan 2030 11:22:19.689,17460.743
39,21 Jan 2030 19:33:06.137,22 Jan 2030 00:25:49.260,17563.123
40,22 Jan 2030 08:35:03.653,22 Jan 2030 13:29:34.989,17671.337
41,22 Jan 2030 21:37:13.151,23 Jan 2030 02:33:36.201,17783.050
42,23 Jan 2030 10:39:35.896,23 Jan 2030 15:37:52.001,17896.105
43,23 Jan 2030 23:42:12.829,24 Jan 2030 04:42:21.353,18008.524
44,24 Jan 2030 12:45:04.518,24 Jan 2030 17:47:03.076,18118.558
45,25 Jan 2030 01:48:11.260,25 Jan 2030 06:51:55.926,18224.666
46,25 Jan 2030 14:51:33.065,25 Jan 2030 19:56:58.597,18325.532
47,26 Jan 2030 03:55:09.709,26 Jan 2030 09:02:09.769,18420.060
48,26 Jan 2030 16:59:00.782,26 Jan 2030 22:07:28.083,18507.302
49,27 Jan 2030 06:03:05.700,27 Jan 2030 11:12:52.194,18586.494
50,27 Jan 2030 19:07:23.745,28 Jan 2030 00:18:20.752,18657.007
51,28 Jan 2030 08:11:54.084,28 Jan 2030 11:00:00.000,10085.916

