dtn_data/3_1/2to6.csv

"Access","Start Time (UTCG)","Stop Time (UTCG)","Duration (sec)"
1,1 Jan 2030 12:42:25.845,1 Jan 2030 15:04:39.298,8533.453
2,6 Jan 2030 16:58:30.987,6 Jan 2030 18:21:32.768,4981.781
3,7 Jan 2030 05:31:00.463,7 Jan 2030 08:23:03.615,10323.151
4,7 Jan 2030 18:23:59.273,7 Jan 2030 22:00:18.992,12979.719
5,8 Jan 2030 07:23:22.015,8 Jan 2030 11:28:58.916,14736.901
6,8 Jan 2030 20:26:02.328,9 Jan 2030 00:53:02.933,16020.605
7,9 Jan 2030 09:30:45.509,9 Jan 2030 14:14:18.530,17013.021
8,9 Jan 2030 22:36:54.635,10 Jan 2030 03:33:44.459,17809.824
9,10 Jan 2030 11:44:09.337,10 Jan 2030 16:51:56.511,18467.174
10,11 Jan 2030 00:52:17.637,11 Jan 2030 06:09:18.133,19020.496
11,11 Jan 2030 14:01:12.255,11 Jan 2030 19:26:05.436,19493.181
12,12 Jan 2030 03:10:48.671,12 Jan 2030 08:42:29.860,19901.190
13,12 Jan 2030 16:21:04.048,12 Jan 2030 21:58:39.624,20255.576
14,13 Jan 2030 05:31:56.557,13 Jan 2030 11:14:40.596,20564.039
15,13 Jan 2030 18:43:24.917,14 Jan 2030 00:30:36.788,20831.871
16,14 Jan 2030 07:55:28.051,14 Jan 2030 13:46:30.654,21062.603
17,14 Jan 2030 21:08:04.829,15 Jan 2030 03:02:23.262,21258.432
18,15 Jan 2030 10:21:13.851,15 Jan 2030 16:18:14.459,21420.608
19,15 Jan 2030 23:34:53.293,16 Jan 2030 05:34:02.968,21549.675
20,16 Jan 2030 12:49:00.813,16 Jan 2030 18:49:46.553,21645.739
21,17 Jan 2030 02:03:33.525,17 Jan 2030 08:05:22.199,21708.675
22,17 Jan 2030 15:18:28.051,17 Jan 2030 21:20:46.345,21738.294
23,18 Jan 2030 04:33:40.664,18 Jan 2030 10:35:55.139,21734.475
24,18 Jan 2030 17:49:07.484,18 Jan 2030 23:50:44.709,21697.225
25,19 Jan 2030 07:04:44.733,19 Jan 2030 13:05:11.394,21626.661
26,19 Jan 2030 20:20:28.995,20 Jan 2030 02:19:11.935,21522.939
27,20 Jan 2030 09:36:17.475,20 Jan 2030 15:32:43.600,21386.125
28,20 Jan 2030 22:52:08.206,21 Jan 2030 04:45:44.188,21215.982
29,21 Jan 2030 12:08:00.230,21 Jan 2030 17:58:12.004,21011.775
30,22 Jan 2030 01:23:53.742,22 Jan 2030 07:10:05.752,20772.010
31,22 Jan 2030 14:39:50.207,22 Jan 2030 20:21:24.329,20494.122
32,23 Jan 2030 03:55:52.504,23 Jan 2030 09:32:06.629,20174.125
33,23 Jan 2030 17:12:05.154,23 Jan 2030 22:42:11.249,19806.095
34,24 Jan 2030 06:28:34.637,24 Jan 2030 11:51:36.116,19381.478
35,24 Jan 2030 19:45:30.018,25 Jan 2030 01:00:17.982,18887.964
36,25 Jan 2030 09:03:03.904,25 Jan 2030 14:08:11.648,18307.744
37,25 Jan 2030 22:21:34.215,26 Jan 2030 03:15:08.693,17614.478
38,26 Jan 2030 11:41:27.336,26 Jan 2030 16:20:55.175,16767.839
39,27 Jan 2030 01:03:24.333,27 Jan 2030 05:25:06.999,15702.666
40,27 Jan 2030 14:28:34.423,27 Jan 2030 18:26:59.346,14304.923
41,28 Jan 2030 03:59:10.077,28 Jan 2030 07:24:57.202,12347.125

