dtn_data/3_1/2to7.csv

"Access","Start Time (UTCG)","Stop Time (UTCG)","Duration (sec)"
1,1 Jan 2030 07:43:54.442,1 Jan 2030 10:30:41.506,10007.064
2,1 Jan 2030 21:51:03.126,1 Jan 2030 22:58:00.775,4017.649
3,7 Jan 2030 00:56:21.080,7 Jan 2030 03:25:21.916,8940.836
4,7 Jan 2030 13:45:09.065,7 Jan 2030 17:07:55.234,12166.169
5,8 Jan 2030 02:42:46.315,8 Jan 2030 06:39:00.277,14173.963
6,8 Jan 2030 15:44:27.433,8 Jan 2030 20:04:27.080,15599.647
7,9 Jan 2030 04:48:31.993,9 Jan 2030 09:26:34.712,16682.719
8,9 Jan 2030 17:54:13.193,9 Jan 2030 22:46:35.052,17541.859
9,10 Jan 2030 07:01:06.035,10 Jan 2030 12:05:10.453,18244.419
10,10 Jan 2030 20:08:56.102,11 Jan 2030 01:22:48.039,18831.937
11,11 Jan 2030 09:17:34.709,11 Jan 2030 14:39:46.155,19331.445
12,11 Jan 2030 22:26:56.499,12 Jan 2030 03:56:17.708,19761.209
13,12 Jan 2030 11:36:58.125,12 Jan 2030 17:12:31.959,20133.834
14,13 Jan 2030 00:47:37.457,13 Jan 2030 06:28:35.538,20458.082
15,13 Jan 2030 13:58:53.059,13 Jan 2030 19:44:33.095,20740.036
16,14 Jan 2030 03:10:43.817,14 Jan 2030 09:00:27.602,20983.784
17,14 Jan 2030 16:23:08.647,14 Jan 2030 22:16:20.616,21191.969
18,15 Jan 2030 05:36:06.265,15 Jan 2030 11:32:12.414,21366.149
19,15 Jan 2030 18:49:35.015,16 Jan 2030 00:48:02.100,21507.085
20,16 Jan 2030 08:03:32.748,16 Jan 2030 14:03:47.762,21615.014
21,16 Jan 2030 21:17:56.771,17 Jan 2030 03:19:26.652,21689.881
22,17 Jan 2030 10:32:43.871,17 Jan 2030 16:34:55.365,21731.494
23,17 Jan 2030 23:47:50.427,18 Jan 2030 05:50:10.127,21739.699
24,18 Jan 2030 13:03:12.587,18 Jan 2030 19:05:07.043,21714.456
25,19 Jan 2030 02:18:46.505,19 Jan 2030 08:19:42.352,21655.847
26,19 Jan 2030 15:34:28.606,19 Jan 2030 21:33:52.635,21564.029
27,20 Jan 2030 04:50:15.844,20 Jan 2030 10:47:34.959,21439.115
28,20 Jan 2030 18:06:05.932,21 Jan 2030 00:00:46.934,21281.002
29,21 Jan 2030 07:21:57.531,21 Jan 2030 13:13:26.695,21089.165
30,21 Jan 2030 20:37:50.409,22 Jan 2030 02:25:32.823,20862.414
31,22 Jan 2030 09:53:45.559,22 Jan 2030 15:37:04.161,20598.602
32,22 Jan 2030 23:09:45.330,23 Jan 2030 04:47:59.639,20294.309
33,23 Jan 2030 12:25:53.624,23 Jan 2030 17:58:17.992,19944.369
34,24 Jan 2030 01:42:16.165,24 Jan 2030 07:07:57.445,19541.281
35,24 Jan 2030 14:59:01.000,24 Jan 2030 20:16:55.247,19074.246
36,25 Jan 2030 04:16:19.310,25 Jan 2030 09:25:07.000,18527.690
37,25 Jan 2030 17:34:26.838,25 Jan 2030 22:32:25.648,17878.810
38,26 Jan 2030 06:53:46.418,26 Jan 2030 11:38:39.591,17093.173
39,26 Jan 2030 20:14:52.820,27 Jan 2030 00:43:29.176,16116.356
40,27 Jan 2030 09:38:42.761,27 Jan 2030 13:46:18.938,14856.178
41,27 Jan 2030 23:06:59.133,28 Jan 2030 02:45:57.829,13138.696

