dtn_data/3_1/2to8.csv

"Access","Start Time (UTCG)","Stop Time (UTCG)","Duration (sec)"
1,1 Jan 2030 04:00:00.000,1 Jan 2030 06:58:17.771,10697.771
2,1 Jan 2030 17:49:48.530,1 Jan 2030 19:37:49.800,6481.270
3,6 Jan 2030 21:27:19.422,6 Jan 2030 23:33:40.288,7580.866
4,7 Jan 2030 10:11:19.023,7 Jan 2030 13:22:03.523,11444.500
5,7 Jan 2030 23:07:14.163,8 Jan 2030 02:55:26.585,13692.422
6,8 Jan 2030 12:08:01.688,8 Jan 2030 16:22:08.413,15246.726
7,9 Jan 2030 01:11:32.666,9 Jan 2030 05:45:02.098,16409.431
8,9 Jan 2030 14:16:50.282,9 Jan 2030 19:05:32.503,17322.221
9,10 Jan 2030 03:23:25.086,10 Jan 2030 08:24:28.188,18063.102
10,10 Jan 2030 16:31:00.386,10 Jan 2030 21:42:19.625,18679.239
11,11 Jan 2030 05:39:26.219,11 Jan 2030 10:59:27.178,19200.959
12,11 Jan 2030 18:48:36.471,12 Jan 2030 00:16:05.021,19648.549
13,12 Jan 2030 07:58:27.336,12 Jan 2030 13:32:23.292,20035.956
14,12 Jan 2030 21:08:56.407,13 Jan 2030 02:48:29.283,20372.876
15,13 Jan 2030 10:20:02.099,13 Jan 2030 16:04:28.139,20666.040
16,13 Jan 2030 23:31:43.242,14 Jan 2030 05:20:23.273,20920.031
17,14 Jan 2030 12:43:58.767,14 Jan 2030 18:36:16.625,21137.858
18,15 Jan 2030 01:56:47.466,15 Jan 2030 07:52:08.797,21321.332
19,15 Jan 2030 15:10:07.800,15 Jan 2030 21:07:59.219,21471.419
20,16 Jan 2030 04:23:57.765,16 Jan 2030 10:23:46.236,21588.472
21,16 Jan 2030 17:38:14.819,16 Jan 2030 23:39:27.316,21672.497
22,17 Jan 2030 06:52:55.886,17 Jan 2030 12:54:59.209,21723.324
23,17 Jan 2030 20:07:57.442,18 Jan 2030 02:10:18.219,21740.777
24,18 Jan 2030 09:23:15.676,18 Jan 2030 15:25:20.456,21724.779
25,18 Jan 2030 22:38:46.717,19 Jan 2030 04:40:02.099,21675.381
26,19 Jan 2030 11:54:26.887,19 Jan 2030 17:54:19.615,21592.728
27,20 Jan 2030 01:10:12.971,20 Jan 2030 07:08:09.934,21476.963
28,20 Jan 2030 14:26:02.447,20 Jan 2030 20:21:30.509,21328.062
29,21 Jan 2030 03:41:53.703,21 Jan 2030 09:34:19.337,21145.634
30,21 Jan 2030 16:57:46.180,21 Jan 2030 22:46:34.888,20928.708
31,22 Jan 2030 06:13:40.527,22 Jan 2030 11:58:15.950,20675.423
32,22 Jan 2030 19:29:38.700,23 Jan 2030 01:09:21.456,20382.756
33,23 Jan 2030 08:45:44.150,23 Jan 2030 14:19:50.227,20046.078
34,23 Jan 2030 22:02:02.056,24 Jan 2030 03:29:40.663,19658.606
35,24 Jan 2030 11:18:39.762,24 Jan 2030 16:38:50.330,19210.568
36,25 Jan 2030 00:35:47.470,25 Jan 2030 05:47:15.386,18687.916
37,25 Jan 2030 13:53:39.472,25 Jan 2030 18:54:49.639,18070.167
38,26 Jan 2030 03:12:36.283,26 Jan 2030 08:01:23.006,17326.723
39,26 Jan 2030 16:33:08.675,26 Jan 2030 21:06:38.579,16409.904
40,27 Jan 2030 05:56:05.771,27 Jan 2030 10:10:06.477,15240.706
41,27 Jan 2030 19:22:53.628,27 Jan 2030 23:10:48.919,13675.290
42,28 Jan 2030 08:56:28.625,28 Jan 2030 11:00:00.000,7411.375

