dtn_data/3_1/7to9.csv

"Access","Start Time (UTCG)","Stop Time (UTCG)","Duration (sec)"
1,1 Jan 2030 04:00:00.000,8 Jan 2030 02:38:00.503,599880.503
2,8 Jan 2030 03:14:21.082,8 Jan 2030 15:44:31.496,45010.414
3,8 Jan 2030 16:38:13.899,9 Jan 2030 04:54:43.368,44189.468
4,9 Jan 2030 05:57:44.636,9 Jan 2030 18:07:12.607,43767.971
5,9 Jan 2030 19:14:30.874,10 Jan 2030 07:21:48.412,43637.538
6,10 Jan 2030 08:28:58.141,10 Jan 2030 20:38:51.130,43792.988
7,10 Jan 2030 21:41:01.714,11 Jan 2030 09:59:26.445,44304.730
8,11 Jan 2030 10:49:52.745,11 Jan 2030 23:28:38.261,45525.516
9,11 Jan 2030 23:50:45.989,22 Jan 2030 13:41:01.710,913815.721
10,22 Jan 2030 14:08:50.489,23 Jan 2030 02:44:02.370,45311.881
11,23 Jan 2030 03:41:15.906,23 Jan 2030 15:55:48.006,44072.100
12,23 Jan 2030 17:04:03.318,24 Jan 2030 05:11:32.087,43648.769
13,24 Jan 2030 06:22:25.255,24 Jan 2030 18:30:31.007,43685.752
14,24 Jan 2030 19:37:28.131,25 Jan 2030 07:53:04.465,44136.334
15,25 Jan 2030 08:49:12.256,25 Jan 2030 21:21:32.129,45139.873
16,25 Jan 2030 21:55:35.370,28 Jan 2030 11:00:00.000,219864.630

