dtn_data/2_2/0to6.csv

"Access","Start Time (UTCG)","Stop Time (UTCG)","Duration (sec)"
1,1 Jan 2030 04:18:25.545,1 Jan 2030 08:44:57.090,15991.545
2,1 Jan 2030 17:24:06.247,1 Jan 2030 22:20:08.472,17762.225
3,2 Jan 2030 06:30:05.216,2 Jan 2030 11:55:41.606,19536.390
4,2 Jan 2030 19:36:26.588,3 Jan 2030 01:31:41.998,21315.409
5,3 Jan 2030 08:43:16.070,3 Jan 2030 15:08:15.207,23099.137
6,3 Jan 2030 21:50:41.489,4 Jan 2030 04:45:24.459,24882.969
7,4 Jan 2030 10:58:53.604,4 Jan 2030 18:23:07.323,26653.719
8,5 Jan 2030 00:08:07.176,5 Jan 2030 08:01:11.459,28384.283
9,5 Jan 2030 13:18:42.312,5 Jan 2030 21:39:09.951,30027.639
10,6 Jan 2030 02:31:05.727,6 Jan 2030 11:16:18.298,31512.571
11,6 Jan 2030 15:45:51.239,7 Jan 2030 00:51:36.681,32745.442
12,7 Jan 2030 05:03:37.843,7 Jan 2030 14:24:00.712,33622.869
13,7 Jan 2030 18:25:03.347,8 Jan 2030 03:52:38.872,34055.524
14,8 Jan 2030 07:50:32.945,8 Jan 2030 17:17:07.671,33994.726
15,8 Jan 2030 21:20:06.333,9 Jan 2030 06:37:35.090,33448.757
16,9 Jan 2030 10:53:11.854,9 Jan 2030 19:54:31.621,32479.767
17,10 Jan 2030 00:28:53.648,10 Jan 2030 09:08:36.845,31183.197
18,10 Jan 2030 14:06:08.249,10 Jan 2030 22:20:29.135,29660.886
19,11 Jan 2030 03:44:00.436,11 Jan 2030 11:30:40.683,28000.247
20,11 Jan 2030 17:21:51.324,12 Jan 2030 00:39:36.463,26265.140
21,12 Jan 2030 06:59:18.776,12 Jan 2030 13:47:35.091,24496.314
22,12 Jan 2030 20:36:13.724,13 Jan 2030 02:54:50.177,22716.453
23,13 Jan 2030 10:12:35.637,13 Jan 2030 16:01:31.622,20935.985
24,13 Jan 2030 23:48:28.542,14 Jan 2030 05:07:46.636,19158.094
25,14 Jan 2030 13:23:58.058,14 Jan 2030 18:13:40.467,17382.409
26,15 Jan 2030 02:59:09.168,15 Jan 2030 07:19:16.914,15607.746
27,15 Jan 2030 16:34:04.458,15 Jan 2030 20:24:38.662,13834.205
28,16 Jan 2030 06:08:42.482,16 Jan 2030 09:29:47.472,12064.991
29,16 Jan 2030 19:42:56.331,16 Jan 2030 22:34:44.231,10307.900
30,17 Jan 2030 09:16:32.442,17 Jan 2030 11:39:28.824,8576.382
31,17 Jan 2030 22:49:10.248,18 Jan 2030 00:43:59.676,6889.427
32,18 Jan 2030 12:20:24.093,18 Jan 2030 13:48:12.450,5268.357
33,19 Jan 2030 01:49:50.390,19 Jan 2030 02:51:56.079,3725.689
34,19 Jan 2030 15:17:32.120,19 Jan 2030 15:54:35.112,2222.992
35,23 Jan 2030 11:51:17.062,23 Jan 2030 12:00:03.605,526.543
36,24 Jan 2030 00:49:22.029,24 Jan 2030 01:29:16.926,2394.897
37,24 Jan 2030 13:52:14.356,24 Jan 2030 14:56:43.904,3869.548
38,25 Jan 2030 02:56:03.105,25 Jan 2030 04:25:54.504,5391.399
39,25 Jan 2030 16:00:18.767,25 Jan 2030 17:56:47.114,6988.347
40,26 Jan 2030 05:04:51.661,26 Jan 2030 07:28:59.523,8647.861
41,26 Jan 2030 18:09:37.961,26 Jan 2030 21:02:08.716,10350.755
42,27 Jan 2030 07:14:36.338,27 Jan 2030 10:35:56.811,12080.473
43,27 Jan 2030 20:19:46.831,28 Jan 2030 00:10:12.514,13825.683
44,28 Jan 2030 09:25:10.447,28 Jan 2030 13:44:50.689,15580.242
45,28 Jan 2030 22:30:49.065,29 Jan 2030 00:00:00.000,5350.935

