dtn_data/2_2/7to8.csv

"Access","Start Time (UTCG)","Stop Time (UTCG)","Duration (sec)"
1,1 Jan 2030 04:00:00.000,7 Jan 2030 11:58:38.068,547118.068
2,7 Jan 2030 12:31:56.844,8 Jan 2030 00:58:10.466,44773.622
3,8 Jan 2030 01:44:57.114,8 Jan 2030 14:02:41.241,44264.128
4,8 Jan 2030 14:54:11.359,9 Jan 2030 03:09:36.227,44124.868
5,9 Jan 2030 04:01:47.818,9 Jan 2030 16:17:55.765,44167.947
6,9 Jan 2030 17:08:28.213,10 Jan 2030 05:27:07.689,44319.477
7,10 Jan 2030 06:14:31.869,10 Jan 2030 18:36:52.257,44540.388
8,10 Jan 2030 19:20:09.101,11 Jan 2030 07:46:56.589,44807.488
9,11 Jan 2030 08:25:25.620,11 Jan 2030 20:57:12.405,45106.785
10,11 Jan 2030 21:30:24.178,12 Jan 2030 10:07:35.326,45431.148
11,12 Jan 2030 10:35:04.814,12 Jan 2030 23:18:06.126,45781.312
12,12 Jan 2030 23:39:23.413,13 Jan 2030 12:28:58.535,46175.122
13,13 Jan 2030 12:43:03.779,20 Jan 2030 15:05:50.062,613366.284
14,20 Jan 2030 15:13:25.390,21 Jan 2030 04:07:47.230,46461.840
15,21 Jan 2030 04:29:54.379,21 Jan 2030 17:12:09.948,45735.569
16,21 Jan 2030 17:44:46.597,22 Jan 2030 06:17:24.370,45157.773
17,22 Jan 2030 06:59:23.984,22 Jan 2030 19:23:20.218,44636.233
18,22 Jan 2030 20:13:40.393,23 Jan 2030 08:30:02.011,44181.617
19,23 Jan 2030 09:27:10.387,23 Jan 2030 21:37:45.549,43835.161
20,23 Jan 2030 22:39:12.566,24 Jan 2030 10:47:05.912,43673.346
21,24 Jan 2030 11:48:40.410,24 Jan 2030 23:59:31.539,43851.130
22,25 Jan 2030 00:53:25.580,25 Jan 2030 13:22:21.074,44935.495
23,25 Jan 2030 13:45:15.740,29 Jan 2030 00:00:00.000,296084.260

