dtn_data/3_3/0to6.csv

"Access","Start Time (UTCG)","Stop Time (UTCG)","Duration (sec)"
1,1 Jan 2030 11:39:17.212,1 Jan 2030 16:42:32.727,18195.514
2,2 Jan 2030 01:14:04.829,2 Jan 2030 05:48:22.868,16458.039
3,2 Jan 2030 14:48:35.933,2 Jan 2030 18:53:57.073,14721.139
4,3 Jan 2030 04:22:52.041,3 Jan 2030 07:59:17.672,12985.631
5,3 Jan 2030 17:56:50.037,3 Jan 2030 21:04:26.151,11256.114
6,4 Jan 2030 07:30:20.831,4 Jan 2030 10:09:23.163,9542.332
7,4 Jan 2030 21:03:08.377,4 Jan 2030 23:14:08.322,7859.945
8,5 Jan 2030 10:34:49.968,5 Jan 2030 12:18:39.620,6229.652
9,6 Jan 2030 00:04:59.423,6 Jan 2030 01:22:51.755,4672.332
10,6 Jan 2030 13:33:17.289,6 Jan 2030 14:26:30.540,3193.252
11,7 Jan 2030 03:00:09.179,7 Jan 2030 03:28:42.979,1713.799
12,10 Jan 2030 23:19:23.806,10 Jan 2030 23:52:43.522,1999.717
13,11 Jan 2030 12:22:02.189,11 Jan 2030 13:19:38.304,3456.115
14,12 Jan 2030 01:25:49.224,12 Jan 2030 02:48:11.311,4942.087
15,12 Jan 2030 14:30:05.643,12 Jan 2030 16:18:32.858,6507.215
16,13 Jan 2030 03:34:39.822,13 Jan 2030 05:50:21.317,8141.495
17,13 Jan 2030 16:39:27.303,13 Jan 2030 19:23:11.178,9823.875
18,14 Jan 2030 05:44:26.470,14 Jan 2030 08:56:41.273,11534.803
19,14 Jan 2030 18:49:37.162,14 Jan 2030 22:30:37.226,13260.065
20,15 Jan 2030 07:55:00.192,15 Jan 2030 12:04:51.387,14991.195
21,15 Jan 2030 21:00:37.205,16 Jan 2030 01:39:21.803,16724.598
22,16 Jan 2030 10:06:30.704,16 Jan 2030 15:14:10.842,18460.137
23,16 Jan 2030 23:12:44.211,17 Jan 2030 04:49:23.715,20199.504
24,17 Jan 2030 12:19:22.572,17 Jan 2030 18:25:06.874,21944.302
25,18 Jan 2030 01:26:32.391,18 Jan 2030 08:01:26.030,23693.639
26,18 Jan 2030 14:34:22.723,18 Jan 2030 21:38:23.508,25440.785
27,19 Jan 2030 03:43:05.933,19 Jan 2030 11:15:54.606,27168.673
28,19 Jan 2030 16:52:58.911,20 Jan 2030 00:53:42.999,28844.088
29,20 Jan 2030 06:04:24.366,20 Jan 2030 14:31:16.236,30411.870
30,20 Jan 2030 19:17:51.854,21 Jan 2030 04:07:43.963,31792.109
31,21 Jan 2030 08:33:57.340,21 Jan 2030 17:42:02.863,32885.523
32,21 Jan 2030 21:53:19.526,22 Jan 2030 07:13:10.419,33590.893
33,22 Jan 2030 11:16:31.172,22 Jan 2030 20:40:23.010,33831.838
34,23 Jan 2030 00:43:46.396,23 Jan 2030 10:03:27.881,33581.485
35,23 Jan 2030 14:14:50.106,23 Jan 2030 23:22:41.742,32871.636
36,24 Jan 2030 03:48:57.919,24 Jan 2030 12:38:39.177,31781.258
37,24 Jan 2030 17:25:08.661,25 Jan 2030 01:51:59.761,30411.099
38,25 Jan 2030 07:02:21.782,25 Jan 2030 15:03:19.663,28857.881
39,25 Jan 2030 20:39:49.905,26 Jan 2030 04:13:08.303,27198.399
40,26 Jan 2030 10:17:02.934,26 Jan 2030 17:21:48.167,25485.233
41,26 Jan 2030 23:53:46.037,27 Jan 2030 06:29:35.907,23749.871
42,27 Jan 2030 13:29:55.249,27 Jan 2030 19:36:43.717,22008.468
43,28 Jan 2030 03:05:33.157,28 Jan 2030 08:43:20.486,20267.330

