dtn_data/3_3/0to7.csv

"Access","Start Time (UTCG)","Stop Time (UTCG)","Duration (sec)"
1,1 Jan 2030 06:47:41.066,1 Jan 2030 11:17:29.955,16188.889
2,1 Jan 2030 20:12:04.269,2 Jan 2030 00:40:47.257,16122.988
3,2 Jan 2030 09:35:45.410,2 Jan 2030 14:04:56.862,16151.452
4,2 Jan 2030 22:58:21.266,3 Jan 2030 03:29:31.232,16269.967
5,3 Jan 2030 12:19:38.563,3 Jan 2030 16:54:00.254,16461.691
6,4 Jan 2030 01:39:34.366,4 Jan 2030 06:17:57.239,16702.872
7,4 Jan 2030 14:58:13.800,4 Jan 2030 19:41:02.935,16969.134
8,5 Jan 2030 04:15:46.873,5 Jan 2030 09:03:06.687,17239.814
9,5 Jan 2030 17:32:25.766,5 Jan 2030 22:24:05.376,17499.609
10,6 Jan 2030 06:48:23.058,6 Jan 2030 11:44:01.417,17738.359
11,6 Jan 2030 20:03:50.864,7 Jan 2030 01:03:00.783,17949.919
12,7 Jan 2030 09:19:00.506,7 Jan 2030 14:21:11.450,18130.943
13,7 Jan 2030 22:34:02.562,8 Jan 2030 03:38:42.406,18279.844
14,8 Jan 2030 11:49:07.056,8 Jan 2030 16:55:43.073,18396.017
15,9 Jan 2030 01:04:23.715,9 Jan 2030 06:12:23.078,18479.363
16,9 Jan 2030 14:20:02.212,9 Jan 2030 19:28:52.223,18530.011
17,10 Jan 2030 03:36:12.362,10 Jan 2030 08:45:20.590,18548.228
18,10 Jan 2030 16:53:04.216,10 Jan 2030 22:01:58.720,18534.504
19,11 Jan 2030 06:10:47.968,11 Jan 2030 11:18:57.789,18489.821
20,11 Jan 2030 19:29:33.570,12 Jan 2030 00:36:29.701,18416.130
21,12 Jan 2030 08:49:29.879,12 Jan 2030 13:54:46.977,18317.097
22,12 Jan 2030 22:10:43.185,13 Jan 2030 03:14:02.178,18198.993
23,13 Jan 2030 11:33:14.998,13 Jan 2030 16:34:26.647,18071.649
24,14 Jan 2030 00:56:59.396,14 Jan 2030 05:56:08.210,17948.814
25,14 Jan 2030 14:21:40.788,14 Jan 2030 19:19:07.989,17847.201
26,15 Jan 2030 03:46:53.712,15 Jan 2030 08:43:17.140,17783.428
27,15 Jan 2030 17:12:05.941,15 Jan 2030 22:08:15.308,17769.367
28,16 Jan 2030 06:36:44.864,16 Jan 2030 11:33:32.719,17807.855
29,16 Jan 2030 20:00:24.402,17 Jan 2030 00:58:35.996,17891.594
30,17 Jan 2030 09:22:49.332,17 Jan 2030 14:22:55.259,18005.927
31,17 Jan 2030 22:43:55.582,18 Jan 2030 03:46:09.250,18133.667
32,18 Jan 2030 12:03:47.697,18 Jan 2030 17:08:06.864,18259.167
33,19 Jan 2030 01:22:35.400,19 Jan 2030 06:28:45.819,18370.419
34,19 Jan 2030 14:40:30.784,19 Jan 2030 19:48:10.068,18459.284
35,20 Jan 2030 03:57:46.492,20 Jan 2030 09:06:27.284,18520.792
36,20 Jan 2030 17:14:34.799,20 Jan 2030 22:23:46.962,18552.164
37,21 Jan 2030 06:31:07.276,21 Jan 2030 11:40:19.243,18551.967
38,21 Jan 2030 19:47:34.793,22 Jan 2030 00:56:14.289,18519.495
39,22 Jan 2030 09:04:07.662,22 Jan 2030 14:11:42.048,18454.386
40,22 Jan 2030 22:20:55.814,23 Jan 2030 03:26:52.258,18356.444
41,23 Jan 2030 11:38:08.961,23 Jan 2030 16:41:54.585,18225.624
42,24 Jan 2030 00:55:56.659,24 Jan 2030 05:56:58.857,18062.198
43,24 Jan 2030 14:14:28.175,24 Jan 2030 19:12:15.308,17867.133
44,25 Jan 2030 03:33:52.134,25 Jan 2030 08:27:54.818,17642.684
45,25 Jan 2030 16:54:15.769,25 Jan 2030 21:44:09.061,17393.292
46,26 Jan 2030 06:15:43.682,26 Jan 2030 11:01:10.394,17126.712
47,26 Jan 2030 19:38:16.078,27 Jan 2030 00:19:11.349,16855.271
48,27 Jan 2030 09:01:46.695,27 Jan 2030 13:38:23.387,16596.692
49,27 Jan 2030 22:26:01.083,28 Jan 2030 02:58:54.686,16373.604

