dtn_data/3_3/1to6.csv

"Access","Start Time (UTCG)","Stop Time (UTCG)","Duration (sec)"
1,1 Jan 2030 05:46:29.632,1 Jan 2030 15:30:46.805,35057.173
2,1 Jan 2030 18:51:09.981,2 Jan 2030 04:34:43.303,35013.322
3,2 Jan 2030 07:55:45.555,2 Jan 2030 17:38:32.250,34966.695
4,2 Jan 2030 21:00:15.417,3 Jan 2030 06:42:13.445,34918.028
5,3 Jan 2030 10:04:38.678,3 Jan 2030 19:45:46.772,34868.093
6,3 Jan 2030 23:08:54.525,4 Jan 2030 08:49:12.202,34817.677
7,4 Jan 2030 12:13:02.221,4 Jan 2030 21:52:29.807,34767.586
8,5 Jan 2030 01:17:01.168,5 Jan 2030 10:55:39.763,34718.595
9,5 Jan 2030 14:20:50.903,5 Jan 2030 23:58:42.383,34671.480
10,6 Jan 2030 03:24:31.130,6 Jan 2030 13:01:38.095,34626.965
11,6 Jan 2030 16:28:01.741,7 Jan 2030 02:04:27.481,34585.739
12,7 Jan 2030 05:31:22.833,7 Jan 2030 15:07:11.266,34548.433
13,7 Jan 2030 18:34:34.716,8 Jan 2030 04:09:50.326,34515.610
14,8 Jan 2030 07:37:37.916,8 Jan 2030 17:12:25.680,34487.764
15,8 Jan 2030 20:40:33.169,9 Jan 2030 06:14:58.476,34465.307
16,9 Jan 2030 09:43:21.404,9 Jan 2030 19:17:29.975,34448.571
17,9 Jan 2030 22:46:03.717,10 Jan 2030 08:20:01.517,34437.800
18,10 Jan 2030 11:48:41.337,10 Jan 2030 21:22:34.492,34433.155
19,11 Jan 2030 00:51:15.596,11 Jan 2030 10:25:10.296,34434.700
20,11 Jan 2030 13:53:47.873,11 Jan 2030 23:27:50.288,34442.415
21,12 Jan 2030 02:56:19.557,12 Jan 2030 12:30:35.745,34456.188
22,12 Jan 2030 15:58:52.008,13 Jan 2030 01:33:27.827,34475.819
23,13 Jan 2030 05:01:26.516,13 Jan 2030 14:36:27.533,34501.017
24,13 Jan 2030 18:04:04.267,14 Jan 2030 03:39:35.680,34531.413
25,14 Jan 2030 07:06:46.321,14 Jan 2030 16:42:52.879,34566.559
26,14 Jan 2030 20:09:33.614,15 Jan 2030 05:46:19.528,34605.914
27,15 Jan 2030 09:12:26.922,15 Jan 2030 18:49:55.808,34648.886
28,15 Jan 2030 22:15:26.881,16 Jan 2030 07:53:41.688,34694.808
29,16 Jan 2030 11:18:33.974,16 Jan 2030 20:57:36.957,34742.983
30,17 Jan 2030 00:21:48.557,17 Jan 2030 10:01:41.214,34792.656
31,17 Jan 2030 13:25:10.860,17 Jan 2030 23:05:53.899,34843.040
32,18 Jan 2030 02:28:40.994,18 Jan 2030 12:10:14.345,34893.350
33,18 Jan 2030 15:32:18.973,19 Jan 2030 01:14:41.760,34942.787
34,19 Jan 2030 04:36:04.715,19 Jan 2030 14:19:15.283,34990.568
35,19 Jan 2030 17:39:58.057,20 Jan 2030 03:23:53.992,35035.935
36,20 Jan 2030 06:43:58.763,20 Jan 2030 16:28:36.932,35078.168
37,20 Jan 2030 19:48:06.532,21 Jan 2030 05:33:23.128,35116.597
38,21 Jan 2030 08:52:20.996,21 Jan 2030 18:38:11.606,35150.610
39,21 Jan 2030 21:56:41.734,22 Jan 2030 07:43:01.405,35179.671
40,22 Jan 2030 11:01:08.266,22 Jan 2030 20:47:51.582,35203.316
41,23 Jan 2030 00:05:40.059,23 Jan 2030 09:52:41.239,35221.179
42,23 Jan 2030 13:10:16.529,23 Jan 2030 22:57:29.505,35232.975
43,24 Jan 2030 02:14:57.038,24 Jan 2030 12:02:15.558,35238.520
44,24 Jan 2030 15:19:40.896,25 Jan 2030 01:06:58.623,35237.726
45,25 Jan 2030 04:24:27.365,25 Jan 2030 14:11:37.976,35230.612
46,25 Jan 2030 17:29:15.655,26 Jan 2030 03:16:12.946,35217.290
47,26 Jan 2030 06:34:04.934,26 Jan 2030 16:20:42.910,35197.975
48,26 Jan 2030 19:38:54.326,27 Jan 2030 05:25:07.301,35172.974
49,27 Jan 2030 08:43:42.920,27 Jan 2030 18:29:25.610,35142.690
50,27 Jan 2030 21:48:29.772,28 Jan 2030 07:33:37.367,35107.595
51,28 Jan 2030 10:53:13.926,28 Jan 2030 11:00:00.000,406.074

