dtn_data/3_3/1to8.csv

"Access","Start Time (UTCG)","Stop Time (UTCG)","Duration (sec)"
1,1 Jan 2030 04:00:00.000,1 Jan 2030 12:55:08.181,32108.181
2,1 Jan 2030 16:57:35.902,2 Jan 2030 01:58:14.523,32438.620
3,2 Jan 2030 06:00:08.210,2 Jan 2030 15:01:31.555,32483.344
4,2 Jan 2030 19:02:46.907,3 Jan 2030 04:04:59.596,32532.689
5,3 Jan 2030 08:05:32.869,3 Jan 2030 17:08:38.737,32585.868
6,3 Jan 2030 21:08:26.790,4 Jan 2030 06:12:28.824,32642.034
7,4 Jan 2030 10:11:29.210,4 Jan 2030 19:16:29.495,32700.286
8,4 Jan 2030 23:14:40.495,5 Jan 2030 08:20:40.205,32759.710
9,5 Jan 2030 12:18:00.870,5 Jan 2030 21:25:00.245,32819.376
10,6 Jan 2030 01:21:30.422,6 Jan 2030 10:29:28.776,32878.354
11,6 Jan 2030 14:25:09.123,6 Jan 2030 23:34:04.866,32935.743
12,7 Jan 2030 03:28:56.835,7 Jan 2030 12:38:47.490,32990.655
13,7 Jan 2030 16:32:53.327,8 Jan 2030 01:43:35.584,33042.257
14,8 Jan 2030 05:36:58.283,8 Jan 2030 14:48:28.048,33089.765
15,8 Jan 2030 18:41:11.313,9 Jan 2030 03:53:23.776,33132.462
16,9 Jan 2030 07:45:31.955,9 Jan 2030 16:58:21.664,33169.709
17,9 Jan 2030 20:49:59.681,10 Jan 2030 06:03:20.626,33200.945
18,10 Jan 2030 09:54:33.903,10 Jan 2030 19:08:19.618,33225.715
19,10 Jan 2030 22:59:13.973,11 Jan 2030 08:13:17.616,33243.643
20,11 Jan 2030 12:03:59.184,11 Jan 2030 21:18:13.652,33254.469
21,12 Jan 2030 01:08:48.774,12 Jan 2030 10:23:06.806,33258.032
22,12 Jan 2030 14:13:41.926,12 Jan 2030 23:27:56.211,33254.285
23,13 Jan 2030 03:18:37.768,13 Jan 2030 12:32:41.053,33243.285
24,13 Jan 2030 16:23:35.381,14 Jan 2030 01:37:20.578,33225.197
25,14 Jan 2030 05:28:33.790,14 Jan 2030 14:41:54.088,33200.298
26,14 Jan 2030 18:33:31.988,15 Jan 2030 03:46:20.942,33168.953
27,15 Jan 2030 07:38:28.930,15 Jan 2030 16:50:40.570,33131.640
28,15 Jan 2030 20:43:23.541,16 Jan 2030 05:54:52.450,33088.909
29,16 Jan 2030 09:48:14.732,16 Jan 2030 18:58:56.136,33041.404
30,16 Jan 2030 22:53:01.414,17 Jan 2030 08:02:51.251,32989.837
31,17 Jan 2030 11:57:42.508,17 Jan 2030 21:06:37.494,32934.986
32,18 Jan 2030 01:02:16.971,18 Jan 2030 10:10:14.649,32877.679
33,18 Jan 2030 14:06:43.813,18 Jan 2030 23:13:42.598,32818.784
34,19 Jan 2030 03:11:02.125,19 Jan 2030 12:17:01.333,32759.208
35,19 Jan 2030 16:15:11.099,20 Jan 2030 01:20:10.958,32699.858
36,20 Jan 2030 05:19:10.062,20 Jan 2030 14:23:11.716,32641.654
37,20 Jan 2030 18:22:58.498,21 Jan 2030 03:26:04.003,32585.505
38,21 Jan 2030 07:26:36.080,21 Jan 2030 16:28:48.371,32532.292
39,21 Jan 2030 20:30:02.689,22 Jan 2030 05:31:25.549,32482.860
40,22 Jan 2030 09:33:18.438,22 Jan 2030 18:33:56.438,32438.000
41,22 Jan 2030 22:36:23.681,23 Jan 2030 07:36:22.121,32398.440
42,23 Jan 2030 11:39:19.017,23 Jan 2030 20:38:43.851,32364.833
43,24 Jan 2030 00:42:05.290,24 Jan 2030 09:41:03.016,32337.727
44,24 Jan 2030 13:44:43.564,24 Jan 2030 22:43:21.144,32317.580
45,25 Jan 2030 02:47:15.103,25 Jan 2030 11:45:39.833,32304.730
46,25 Jan 2030 15:49:41.329,26 Jan 2030 00:48:00.732,32299.403
47,26 Jan 2030 04:52:03.778,26 Jan 2030 13:50:25.470,32301.692
48,26 Jan 2030 17:54:24.052,27 Jan 2030 02:52:55.619,32311.567
49,27 Jan 2030 06:56:43.764,27 Jan 2030 15:55:32.632,32328.868
50,27 Jan 2030 19:59:04.491,28 Jan 2030 04:58:17.803,32353.312
51,28 Jan 2030 09:01:27.728,28 Jan 2030 11:00:00.000,7112.272

