dtn_data/3_3/2to6.csv

"Access","Start Time (UTCG)","Stop Time (UTCG)","Duration (sec)"
1,1 Jan 2030 04:50:04.517,1 Jan 2030 11:09:48.235,22783.718
2,1 Jan 2030 17:49:52.415,2 Jan 2030 00:37:44.644,24472.229
3,2 Jan 2030 06:51:17.075,2 Jan 2030 14:03:27.358,25930.282
4,2 Jan 2030 19:53:46.886,3 Jan 2030 03:27:36.567,27229.680
5,3 Jan 2030 08:57:04.409,3 Jan 2030 16:50:35.463,28411.053
6,3 Jan 2030 22:00:59.568,4 Jan 2030 06:12:37.723,29498.155
7,4 Jan 2030 11:05:26.467,4 Jan 2030 19:33:51.208,30504.741
8,5 Jan 2030 00:10:21.802,5 Jan 2030 08:54:19.984,31438.182
9,5 Jan 2030 13:15:44.000,5 Jan 2030 22:14:05.557,32301.557
10,6 Jan 2030 02:21:32.720,6 Jan 2030 11:33:07.640,33094.921
11,6 Jan 2030 15:27:48.577,7 Jan 2030 00:51:24.818,33816.241
12,7 Jan 2030 04:34:32.949,7 Jan 2030 14:08:55.000,34462.051
13,7 Jan 2030 17:41:47.845,8 Jan 2030 03:25:35.867,35028.022
14,8 Jan 2030 06:49:35.800,8 Jan 2030 16:41:25.268,35509.469
15,8 Jan 2030 19:57:59.753,9 Jan 2030 05:56:21.537,35901.784
16,9 Jan 2030 09:07:02.921,9 Jan 2030 19:10:23.735,36200.814
17,9 Jan 2030 22:16:48.621,10 Jan 2030 08:23:31.801,36403.180
18,10 Jan 2030 11:27:20.108,10 Jan 2030 21:35:46.605,36506.497
19,11 Jan 2030 00:38:40.330,11 Jan 2030 10:47:09.868,36509.538
20,11 Jan 2030 13:50:51.721,11 Jan 2030 23:57:44.039,36412.318
21,12 Jan 2030 03:03:56.007,12 Jan 2030 13:07:32.092,36216.085
22,12 Jan 2030 16:17:54.062,13 Jan 2030 02:16:37.301,35923.239
23,13 Jan 2030 05:32:45.849,13 Jan 2030 15:25:03.023,35537.174
24,13 Jan 2030 18:48:30.472,14 Jan 2030 04:32:52.507,35062.036
25,14 Jan 2030 08:05:06.307,14 Jan 2030 17:40:08.725,34502.418
26,14 Jan 2030 21:22:31.256,15 Jan 2030 06:46:54.242,33862.985
27,15 Jan 2030 10:40:43.061,15 Jan 2030 19:53:11.092,33148.032
28,15 Jan 2030 23:59:39.691,16 Jan 2030 08:59:00.687,32360.996
29,16 Jan 2030 13:19:19.748,16 Jan 2030 22:04:23.667,31503.919
30,17 Jan 2030 02:39:43.013,17 Jan 2030 11:09:19.717,30576.704
31,17 Jan 2030 16:00:50.978,18 Jan 2030 00:13:47.294,29576.317
32,18 Jan 2030 05:22:47.713,18 Jan 2030 13:17:43.129,28495.416
33,18 Jan 2030 18:45:41.013,19 Jan 2030 02:21:01.377,27320.365
34,19 Jan 2030 08:09:44.449,19 Jan 2030 15:23:32.037,26027.589
35,19 Jan 2030 21:35:20.979,20 Jan 2030 04:24:57.824,24576.845
36,20 Jan 2030 11:03:10.329,20 Jan 2030 17:24:47.428,22897.099
37,21 Jan 2030 00:34:25.810,21 Jan 2030 06:21:59.127,20853.317
38,21 Jan 2030 14:11:40.525,21 Jan 2030 19:14:13.154,18152.630
39,22 Jan 2030 04:01:45.120,22 Jan 2030 07:54:42.557,13977.437
40,22 Jan 2030 19:01:50.161,22 Jan 2030 19:25:05.215,1395.054
41,26 Jan 2030 19:32:33.925,26 Jan 2030 23:08:05.529,12931.604
42,27 Jan 2030 08:10:02.051,27 Jan 2030 13:01:30.681,17488.630
43,27 Jan 2030 21:01:14.011,28 Jan 2030 02:40:06.358,20332.347
44,28 Jan 2030 09:57:56.137,28 Jan 2030 11:00:00.000,3723.863

