dtn_data/3_3/2to7.csv

"Access","Start Time (UTCG)","Stop Time (UTCG)","Duration (sec)"
1,1 Jan 2030 04:00:00.000,1 Jan 2030 04:35:37.396,2137.396
2,1 Jan 2030 12:31:04.871,1 Jan 2030 17:50:33.640,19168.769
3,2 Jan 2030 01:45:10.491,2 Jan 2030 07:05:35.139,19224.648
4,2 Jan 2030 14:59:36.117,2 Jan 2030 20:20:40.414,19264.297
5,3 Jan 2030 04:14:17.923,3 Jan 2030 09:35:47.078,19289.154
6,3 Jan 2030 17:29:11.829,3 Jan 2030 22:50:51.970,19300.141
7,4 Jan 2030 06:44:13.697,4 Jan 2030 12:05:51.362,19297.665
8,4 Jan 2030 19:59:19.567,5 Jan 2030 01:20:41.195,19281.628
9,5 Jan 2030 09:14:25.908,5 Jan 2030 14:35:17.325,19251.417
10,5 Jan 2030 22:29:29.843,6 Jan 2030 03:49:35.754,19205.911
11,6 Jan 2030 11:44:29.325,6 Jan 2030 17:03:32.791,19143.466
12,7 Jan 2030 00:59:23.278,7 Jan 2030 06:17:05.185,19061.907
13,7 Jan 2030 14:14:11.674,7 Jan 2030 19:30:10.111,18958.437
14,8 Jan 2030 03:28:55.607,8 Jan 2030 08:42:45.147,18829.540
15,8 Jan 2030 16:43:37.325,8 Jan 2030 21:54:48.137,18670.812
16,9 Jan 2030 05:58:20.337,9 Jan 2030 11:06:16.980,18476.644
17,9 Jan 2030 19:13:09.578,10 Jan 2030 00:17:09.367,18239.789
18,10 Jan 2030 08:28:11.725,10 Jan 2030 13:27:22.386,17950.661
19,10 Jan 2030 21:43:35.741,11 Jan 2030 02:36:51.997,17596.256
20,11 Jan 2030 10:59:33.819,11 Jan 2030 15:45:32.209,17158.390
21,12 Jan 2030 00:16:23.053,12 Jan 2030 04:53:13.734,16610.681
22,12 Jan 2030 13:34:28.463,12 Jan 2030 17:59:41.583,15913.120
23,13 Jan 2030 02:54:28.963,13 Jan 2030 07:04:30.250,15001.288
24,13 Jan 2030 16:17:30.413,13 Jan 2030 20:06:52.809,13762.396
25,14 Jan 2030 05:45:39.879,14 Jan 2030 09:05:10.849,11970.970
26,14 Jan 2030 19:24:12.515,14 Jan 2030 21:54:56.357,9043.842
27,20 Jan 2030 00:08:54.551,20 Jan 2030 01:20:04.201,4269.650
28,20 Jan 2030 12:37:37.777,20 Jan 2030 15:22:00.166,9862.389
29,21 Jan 2030 01:30:04.481,21 Jan 2030 04:57:20.837,12436.356
30,21 Jan 2030 14:29:31.607,21 Jan 2030 18:24:03.608,14072.001
31,22 Jan 2030 03:32:33.233,22 Jan 2030 07:46:16.136,15222.903
32,22 Jan 2030 16:37:47.447,22 Jan 2030 21:05:46.229,16078.782
33,23 Jan 2030 05:44:33.735,23 Jan 2030 10:23:31.801,16738.066
34,23 Jan 2030 18:52:29.602,23 Jan 2030 23:40:07.842,17258.240
35,24 Jan 2030 08:01:21.655,24 Jan 2030 12:55:57.189,17675.535
36,24 Jan 2030 21:11:01.512,25 Jan 2030 02:11:15.624,18014.112
37,25 Jan 2030 10:21:23.712,25 Jan 2030 15:26:14.495,18290.783
38,25 Jan 2030 23:32:24.527,26 Jan 2030 04:41:02.179,18517.651
39,26 Jan 2030 12:44:01.216,26 Jan 2030 17:55:44.919,18703.703
40,27 Jan 2030 01:56:11.543,27 Jan 2030 07:10:27.303,18855.760
41,27 Jan 2030 15:08:53.415,27 Jan 2030 20:25:12.540,18979.125
42,28 Jan 2030 04:22:04.624,28 Jan 2030 09:40:02.606,19077.981

