dtn_data/3_3/2to8.csv

"Access","Start Time (UTCG)","Stop Time (UTCG)","Duration (sec)"
1,1 Jan 2030 04:32:24.159,1 Jan 2030 13:53:23.493,33659.335
2,1 Jan 2030 17:49:10.656,2 Jan 2030 03:01:40.191,33149.535
3,2 Jan 2030 07:06:44.493,2 Jan 2030 16:09:21.999,32557.506
4,2 Jan 2030 20:25:03.454,3 Jan 2030 05:16:31.241,31887.787
5,3 Jan 2030 09:44:05.644,3 Jan 2030 18:23:09.742,31144.098
6,3 Jan 2030 23:03:49.925,4 Jan 2030 07:29:18.647,30328.723
7,4 Jan 2030 12:24:16.421,4 Jan 2030 20:34:58.284,29441.863
8,5 Jan 2030 01:45:27.120,5 Jan 2030 09:40:07.901,28480.781
9,5 Jan 2030 15:07:26.640,5 Jan 2030 22:44:45.303,27438.663
10,6 Jan 2030 04:30:23.433,6 Jan 2030 11:48:46.174,26302.742
11,6 Jan 2030 17:54:31.601,7 Jan 2030 00:52:02.949,25051.348
12,7 Jan 2030 07:20:14.259,7 Jan 2030 13:54:22.566,23648.307
13,7 Jan 2030 20:48:09.934,8 Jan 2030 02:55:21.843,22031.909
14,8 Jan 2030 10:19:26.600,8 Jan 2030 15:54:16.668,20090.068
15,8 Jan 2030 23:56:17.338,9 Jan 2030 04:49:32.179,17594.841
16,9 Jan 2030 13:44:01.226,9 Jan 2030 17:36:53.056,13971.830
17,10 Jan 2030 04:05:41.657,10 Jan 2030 05:55:05.642,6563.986
18,14 Jan 2030 18:08:36.223,14 Jan 2030 21:18:28.765,11392.542
19,15 Jan 2030 06:48:31.605,15 Jan 2030 11:15:35.940,16024.335
20,15 Jan 2030 19:41:06.300,16 Jan 2030 00:56:22.833,18916.533
21,16 Jan 2030 08:38:40.553,16 Jan 2030 14:29:51.083,21070.530
22,16 Jan 2030 21:38:51.934,17 Jan 2030 03:59:11.177,22819.244
23,17 Jan 2030 10:40:39.525,17 Jan 2030 17:25:53.427,24313.901
24,17 Jan 2030 23:43:32.800,18 Jan 2030 06:50:47.015,25634.215
25,18 Jan 2030 12:47:15.002,18 Jan 2030 20:14:20.822,26825.820
26,19 Jan 2030 01:51:36.490,19 Jan 2030 09:36:52.353,27915.863
27,19 Jan 2030 14:56:31.683,19 Jan 2030 22:58:32.203,28920.520
28,20 Jan 2030 04:01:57.536,20 Jan 2030 12:19:26.423,29848.886
29,20 Jan 2030 17:07:52.697,21 Jan 2030 01:39:37.943,30705.247
30,21 Jan 2030 06:14:17.029,21 Jan 2030 14:59:07.513,31490.484
31,21 Jan 2030 19:21:11.303,22 Jan 2030 04:17:54.349,32203.045
32,22 Jan 2030 08:28:37.035,22 Jan 2030 17:35:56.704,32839.669
33,22 Jan 2030 21:36:36.296,23 Jan 2030 06:53:12.329,33396.033
34,23 Jan 2030 10:45:11.602,23 Jan 2030 20:09:38.903,33867.301
35,23 Jan 2030 23:54:25.756,24 Jan 2030 09:25:14.395,34248.638
36,24 Jan 2030 13:04:21.706,24 Jan 2030 22:39:57.371,34535.665
37,25 Jan 2030 02:15:02.337,25 Jan 2030 11:53:47.188,34724.851
38,25 Jan 2030 15:26:30.281,26 Jan 2030 01:06:44.096,34813.815
39,26 Jan 2030 04:38:47.709,26 Jan 2030 14:18:49.224,34801.515
40,26 Jan 2030 17:51:56.143,27 Jan 2030 03:30:04.475,34688.332
41,27 Jan 2030 07:05:56.321,27 Jan 2030 16:40:32.350,34476.029
42,27 Jan 2030 20:20:48.140,28 Jan 2030 05:50:15.745,34167.604
43,28 Jan 2030 09:36:30.699,28 Jan 2030 11:00:00.000,5009.301

