dtn_data/3_3/4to7.csv

"Access","Start Time (UTCG)","Stop Time (UTCG)","Duration (sec)"
1,1 Jan 2030 04:35:41.390,1 Jan 2030 05:58:57.974,4996.583
2,1 Jan 2030 07:03:16.075,1 Jan 2030 08:28:59.213,5143.138
3,1 Jan 2030 09:38:28.133,1 Jan 2030 11:08:13.016,5384.883
4,1 Jan 2030 12:13:15.298,1 Jan 2030 13:35:17.619,4922.321
5,1 Jan 2030 14:39:52.780,1 Jan 2030 16:10:15.201,5422.421
6,1 Jan 2030 17:16:20.644,1 Jan 2030 18:40:49.788,5069.144
7,1 Jan 2030 19:44:57.405,1 Jan 2030 21:09:00.548,5043.144
8,1 Jan 2030 22:17:32.685,1 Jan 2030 23:49:08.793,5496.108
9,2 Jan 2030 00:54:50.677,2 Jan 2030 02:16:48.695,4918.018
10,2 Jan 2030 03:21:05.763,2 Jan 2030 04:50:05.268,5339.505
11,2 Jan 2030 05:56:37.114,2 Jan 2030 07:22:37.873,5160.760
12,2 Jan 2030 08:26:42.456,2 Jan 2030 09:49:35.396,4972.940
13,2 Jan 2030 10:56:58.867,2 Jan 2030 12:29:34.776,5555.910
14,2 Jan 2030 13:36:09.726,2 Jan 2030 14:58:28.828,4939.103
15,2 Jan 2030 16:02:36.068,2 Jan 2030 17:29:54.260,5238.191
16,2 Jan 2030 18:36:34.414,2 Jan 2030 20:04:17.449,5263.035
17,2 Jan 2030 21:08:26.352,2 Jan 2030 22:30:38.117,4931.765
18,2 Jan 2030 23:36:59.133,3 Jan 2030 01:09:25.849,5546.716
19,3 Jan 2030 02:17:05.940,3 Jan 2030 03:40:13.394,4987.454
20,3 Jan 2030 04:44:18.472,3 Jan 2030 06:09:55.772,5137.300
21,3 Jan 2030 07:16:22.541,3 Jan 2030 08:45:43.478,5360.937
22,3 Jan 2030 09:50:04.473,3 Jan 2030 11:12:01.857,4917.385
23,3 Jan 2030 12:17:33.501,3 Jan 2030 13:48:44.923,5471.422
24,3 Jan 2030 14:57:32.680,3 Jan 2030 16:21:57.710,5065.030
25,3 Jan 2030 17:26:07.961,3 Jan 2030 18:50:18.071,5050.110
26,3 Jan 2030 19:56:15.722,3 Jan 2030 21:26:50.857,5435.135
27,3 Jan 2030 22:31:32.237,3 Jan 2030 23:53:40.221,4927.984
28,4 Jan 2030 00:58:35.700,4 Jan 2030 02:27:48.022,5352.322
29,4 Jan 2030 03:37:25.411,4 Jan 2030 05:03:36.775,5171.365
30,4 Jan 2030 06:07:59.797,4 Jan 2030 07:31:03.163,4983.366
31,4 Jan 2030 08:36:26.551,4 Jan 2030 10:07:35.255,5468.705
32,4 Jan 2030 11:12:45.057,4 Jan 2030 12:35:27.566,4962.509
33,4 Jan 2030 13:39:58.089,4 Jan 2030 15:06:59.659,5221.570
34,4 Jan 2030 16:16:46.488,4 Jan 2030 17:45:04.951,5298.462
35,4 Jan 2030 18:49:49.334,4 Jan 2030 20:12:08.912,4939.578
36,4 Jan 2030 21:17:01.400,4 Jan 2030 22:47:55.075,5453.675
37,4 Jan 2030 23:53:38.668,5 Jan 2030 01:17:18.889,5020.221
38,5 Jan 2030 02:21:33.668,5 Jan 2030 03:46:39.003,5105.334
39,5 Jan 2030 04:55:50.387,5 Jan 2030 06:26:15.686,5425.299
40,5 Jan 2030 07:31:31.742,5 Jan 2030 08:53:31.287,4919.544
41,5 Jan 2030 09:58:00.329,5 Jan 2030 11:27:54.122,5393.794
42,5 Jan 2030 12:34:10.115,5 Jan 2030 13:59:09.510,5099.395
43,5 Jan 2030 15:03:16.440,5 Jan 2030 16:26:52.630,5016.190
44,5 Jan 2030 17:35:01.044,5 Jan 2030 19:07:01.587,5520.543
45,5 Jan 2030 20:13:01.706,5 Jan 2030 21:35:05.681,4923.975
46,5 Jan 2030 22:39:19.677,6 Jan 2030 00:07:42.916,5303.239
47,6 Jan 2030 01:14:19.652,6 Jan 2030 02:40:54.774,5195.123
48,6 Jan 2030 03:45:01.201,6 Jan 2030 05:07:37.884,4956.683
49,6 Jan 2030 06:14:38.928,6 Jan 2030 07:47:15.658,5556.730
50,6 Jan 2030 08:54:13.211,6 Jan 2030 10:16:47.465,4954.254
51,6 Jan 2030 11:20:54.434,6 Jan 2030 12:47:35.663,5201.230
52,6 Jan 2030 13:54:13.034,6 Jan 2030 15:22:29.847,5296.814
53,6 Jan 2030 16:26:43.199,6 Jan 2030 17:48:48.471,4925.272
54,6 Jan 2030 18:54:51.655,6 Jan 2030 20:26:54.966,5523.311
55,6 Jan 2030 21:34:59.642,6 Jan 2030 22:58:32.027,5012.386
56,7 Jan 2030 00:02:39.447,7 Jan 2030 01:27:44.327,5104.880
57,7 Jan 2030 02:34:02.067,7 Jan 2030 04:03:49.658,5387.592
58,7 Jan 2030 05:08:17.870,7 Jan 2030 06:30:17.669,4919.799
59,7 Jan 2030 07:35:36.417,7 Jan 2030 09:06:06.751,5430.334
60,7 Jan 2030 10:15:14.824,7 Jan 2030 11:40:14.623,5099.799
61,7 Jan 2030 12:44:29.838,7 Jan 2030 14:08:14.834,5024.996
62,7 Jan 2030 15:14:00.910,7 Jan 2030 16:44:49.302,5448.392
63,7 Jan 2030 17:49:40.650,7 Jan 2030 19:11:59.381,4938.731
64,7 Jan 2030 20:16:46.193,7 Jan 2030 21:45:10.998,5304.805
65,7 Jan 2030 22:54:56.081,8 Jan 2030 00:21:50.081,5214.000
66,8 Jan 2030 01:26:20.944,8 Jan 2030 02:49:07.495,4966.551
67,8 Jan 2030 03:54:20.145,8 Jan 2030 05:25:25.204,5465.059
68,8 Jan 2030 06:30:47.046,8 Jan 2030 07:53:48.246,4981.200
69,8 Jan 2030 08:58:13.530,8 Jan 2030 10:24:31.558,5178.028
70,8 Jan 2030 11:34:09.619,8 Jan 2030 13:03:12.488,5342.869
71,8 Jan 2030 14:08:08.100,8 Jan 2030 15:30:19.365,4931.265
72,8 Jan 2030 16:35:03.732,8 Jan 2030 18:05:37.418,5433.686
73,8 Jan 2030 19:11:33.155,8 Jan 2030 20:35:39.420,5046.265
74,8 Jan 2030 21:39:51.824,8 Jan 2030 23:04:23.167,5071.343
75,9 Jan 2030 00:13:13.971,9 Jan 2030 01:44:15.009,5461.037
76,9 Jan 2030 02:49:46.354,9 Jan 2030 04:11:46.162,4919.808
77,9 Jan 2030 05:16:10.176,9 Jan 2030 06:45:32.085,5361.910
78,9 Jan 2030 07:51:56.951,9 Jan 2030 09:17:28.276,5131.326
79,9 Jan 2030 10:21:35.413,9 Jan 2030 11:44:48.534,4993.121
80,9 Jan 2030 12:52:33.167,9 Jan 2030 14:24:50.240,5537.073
81,9 Jan 2030 15:31:10.184,9 Jan 2030 16:53:23.279,4933.094
82,9 Jan 2030 17:57:35.211,9 Jan 2030 19:25:21.434,5266.223
83,9 Jan 2030 20:32:00.414,9 Jan 2030 21:59:10.136,5229.722
84,9 Jan 2030 23:03:19.305,10 Jan 2030 00:25:43.285,4943.980
85,10 Jan 2030 01:32:23.403,10 Jan 2030 03:04:52.165,5548.762
86,10 Jan 2030 04:12:13.367,10 Jan 2030 05:35:06.128,4972.761
87,10 Jan 2030 06:39:13.749,10 Jan 2030 08:05:19.331,5165.582
88,10 Jan 2030 09:11:51.467,10 Jan 2030 10:40:40.106,5328.639
89,10 Jan 2030 11:44:58.867,10 Jan 2030 13:07:00.851,4921.984
90,10 Jan 2030 14:12:47.995,10 Jan 2030 15:44:20.831,5492.836
91,10 Jan 2030 16:52:49.326,10 Jan 2030 18:16:50.092,5040.765
92,10 Jan 2030 19:21:00.765,10 Jan 2030 20:45:35.701,5074.936
93,10 Jan 2030 21:51:43.169,10 Jan 2030 23:21:53.147,5409.977
94,11 Jan 2030 00:26:29.552,11 Jan 2030 01:48:34.727,4925.175
95,11 Jan 2030 02:53:42.152,11 Jan 2030 04:23:28.080,5385.928
96,11 Jan 2030 05:32:52.745,11 Jan 2030 06:58:30.326,5137.581
97,11 Jan 2030 08:02:51.483,11 Jan 2030 09:26:14.284,5002.801
98,11 Jan 2030 10:31:48.858,11 Jan 2030 12:02:44.704,5455.847
99,11 Jan 2030 13:07:46.837,11 Jan 2030 14:30:19.122,4952.284
100,11 Jan 2030 15:34:58.536,11 Jan 2030 17:02:36.530,5257.994
101,11 Jan 2030 18:12:23.477,11 Jan 2030 19:40:01.445,5257.968
102,11 Jan 2030 20:44:41.287,11 Jan 2030 22:07:14.030,4952.743
103,11 Jan 2030 23:12:16.788,12 Jan 2030 00:43:12.251,5455.464
104,12 Jan 2030 01:48:46.395,12 Jan 2030 03:12:08.904,5002.509
105,12 Jan 2030 04:16:29.996,12 Jan 2030 05:42:07.642,5137.646
106,12 Jan 2030 06:51:32.004,12 Jan 2030 08:21:17.252,5385.247
107,12 Jan 2030 09:26:25.457,12 Jan 2030 10:48:31.419,4925.962
108,12 Jan 2030 11:53:08.756,12 Jan 2030 13:23:17.788,5409.032
109,12 Jan 2030 14:29:24.851,12 Jan 2030 15:53:59.362,5074.511
110,12 Jan 2030 16:58:10.312,12 Jan 2030 18:22:11.576,5041.263
111,12 Jan 2030 19:30:39.894,12 Jan 2030 21:02:10.683,5490.789
112,12 Jan 2030 22:07:58.886,12 Jan 2030 23:30:02.027,4923.141
113,13 Jan 2030 00:34:22.083,13 Jan 2030 02:03:09.737,5327.654
114,13 Jan 2030 03:09:41.376,13 Jan 2030 04:35:45.885,5164.509
115,13 Jan 2030 05:39:54.115,13 Jan 2030 07:02:47.942,4973.827
116,13 Jan 2030 08:10:09.454,13 Jan 2030 09:42:34.585,5545.132
117,13 Jan 2030 10:49:15.837,13 Jan 2030 12:11:41.285,4945.449
118,13 Jan 2030 13:15:52.124,13 Jan 2030 14:43:01.386,5229.262
119,13 Jan 2030 15:49:39.899,13 Jan 2030 17:17:23.752,5263.852
120,13 Jan 2030 18:21:36.585,13 Jan 2030 19:43:51.280,4934.695
121,13 Jan 2030 20:50:12.156,13 Jan 2030 22:22:24.530,5532.374
122,13 Jan 2030 23:30:09.931,14 Jan 2030 00:53:24.615,4994.684
123,14 Jan 2030 01:57:33.805,14 Jan 2030 03:23:05.544,5131.739
124,14 Jan 2030 04:29:30.340,14 Jan 2030 05:58:48.027,5357.687
125,14 Jan 2030 07:03:13.160,14 Jan 2030 08:25:14.974,4921.814
126,14 Jan 2030 09:30:47.809,14 Jan 2030 11:01:44.276,5456.466
127,14 Jan 2030 12:10:34.846,14 Jan 2030 13:35:07.372,5072.526
128,14 Jan 2030 14:39:22.220,14 Jan 2030 16:03:29.899,5047.679
129,14 Jan 2030 17:09:26.345,14 Jan 2030 18:39:53.792,5427.447
130,14 Jan 2030 19:44:39.335,14 Jan 2030 21:06:52.793,4933.458
131,14 Jan 2030 22:11:50.355,14 Jan 2030 23:40:50.050,5339.696
132,15 Jan 2030 00:50:26.622,15 Jan 2030 02:16:44.566,5177.944
133,15 Jan 2030 03:21:12.692,15 Jan 2030 04:44:16.273,4983.581
134,15 Jan 2030 05:49:39.743,15 Jan 2030 07:20:37.055,5457.312
135,15 Jan 2030 08:25:50.638,15 Jan 2030 09:48:39.229,4968.591
136,15 Jan 2030 10:53:12.424,15 Jan 2030 12:20:05.371,5212.947
137,15 Jan 2030 13:29:48.350,15 Jan 2030 14:58:10.583,5302.233
138,15 Jan 2030 16:03:00.617,15 Jan 2030 17:25:22.564,4941.947
139,15 Jan 2030 18:30:16.394,15 Jan 2030 20:00:56.645,5440.251
140,15 Jan 2030 21:06:43.015,15 Jan 2030 22:30:29.348,5026.333
141,15 Jan 2030 23:34:47.234,16 Jan 2030 00:59:48.062,5100.829
142,16 Jan 2030 02:08:54.771,16 Jan 2030 03:39:18.932,5424.161
143,16 Jan 2030 04:44:41.173,16 Jan 2030 06:06:44.863,4923.690
144,16 Jan 2030 07:11:16.263,16 Jan 2030 08:40:56.727,5380.464
145,16 Jan 2030 09:47:13.828,16 Jan 2030 11:12:18.515,5104.687
146,16 Jan 2030 12:16:28.915,16 Jan 2030 13:40:04.010,5015.095
147,16 Jan 2030 14:48:08.980,16 Jan 2030 16:20:02.438,5513.458
148,16 Jan 2030 17:26:09.079,16 Jan 2030 18:48:18.689,4929.610
149,16 Jan 2030 19:52:35.810,16 Jan 2030 21:20:47.730,5291.920
150,16 Jan 2030 22:27:23.715,16 Jan 2030 23:54:02.121,5198.405
151,17 Jan 2030 00:58:12.346,17 Jan 2030 02:20:50.537,4958.191
152,17 Jan 2030 03:27:50.083,17 Jan 2030 05:00:14.564,5544.481
153,17 Jan 2030 06:07:18.388,17 Jan 2030 07:29:59.492,4961.104
154,17 Jan 2030 08:34:10.185,17 Jan 2030 10:00:43.245,5193.060
155,17 Jan 2030 11:07:18.680,17 Jan 2030 12:35:35.406,5296.726
156,17 Jan 2030 13:39:52.843,17 Jan 2030 15:02:01.559,4928.716
157,17 Jan 2030 16:08:04.952,17 Jan 2030 17:39:53.192,5508.239
158,17 Jan 2030 18:48:02.666,17 Jan 2030 20:11:42.715,5020.049
159,17 Jan 2030 21:15:54.385,17 Jan 2030 22:40:54.470,5100.086
160,17 Jan 2030 23:47:10.281,18 Jan 2030 01:16:53.416,5383.136
161,18 Jan 2030 02:21:25.898,18 Jan 2030 03:43:30.572,4924.674
162,18 Jan 2030 04:48:50.743,18 Jan 2030 06:19:06.321,5415.578
163,18 Jan 2030 07:28:16.146,18 Jan 2030 08:53:23.632,5107.486
164,18 Jan 2030 09:57:43.617,18 Jan 2030 11:21:26.858,5023.242
165,18 Jan 2030 12:27:11.983,18 Jan 2030 13:57:51.483,5439.500
166,18 Jan 2030 15:02:47.038,18 Jan 2030 16:25:11.636,4944.598
167,18 Jan 2030 17:30:00.679,18 Jan 2030 18:58:13.745,5293.066
168,18 Jan 2030 20:07:56.831,18 Jan 2030 21:34:57.088,5220.257
169,18 Jan 2030 22:39:33.272,19 Jan 2030 00:02:20.625,4967.353
170,19 Jan 2030 01:07:33.643,19 Jan 2030 02:38:26.425,5452.781
171,19 Jan 2030 03:43:51.911,19 Jan 2030 05:06:59.495,4987.584
172,19 Jan 2030 06:11:27.574,19 Jan 2030 07:37:38.059,5170.485
173,19 Jan 2030 08:47:11.621,19 Jan 2030 10:16:17.198,5345.576
174,19 Jan 2030 11:21:18.712,19 Jan 2030 12:43:32.885,4934.173
175,19 Jan 2030 13:48:18.824,19 Jan 2030 15:18:38.742,5419.917
176,19 Jan 2030 16:24:36.867,19 Jan 2030 17:48:49.369,5052.502
177,19 Jan 2030 18:53:05.003,19 Jan 2030 20:17:32.791,5067.788
178,19 Jan 2030 21:26:18.996,19 Jan 2030 22:57:17.221,5458.224
179,20 Jan 2030 00:02:55.009,20 Jan 2030 01:24:59.486,4924.477
180,20 Jan 2030 02:29:26.025,20 Jan 2030 03:58:34.838,5348.813
181,20 Jan 2030 05:05:00.238,20 Jan 2030 06:30:36.677,5136.440
182,20 Jan 2030 07:34:47.419,20 Jan 2030 08:58:00.195,4992.776
183,20 Jan 2030 10:05:41.831,20 Jan 2030 11:37:50.054,5528.223
184,20 Jan 2030 12:44:16.668,20 Jan 2030 14:06:35.930,4939.262
185,20 Jan 2030 15:10:51.118,20 Jan 2030 16:38:26.668,5255.550
186,20 Jan 2030 17:45:04.394,20 Jan 2030 19:12:16.790,5232.396
187,20 Jan 2030 20:16:29.908,20 Jan 2030 21:38:55.991,4946.083
188,20 Jan 2030 22:45:35.052,21 Jan 2030 00:17:50.274,5535.222
189,21 Jan 2030 01:25:17.569,21 Jan 2030 02:48:17.696,4980.126
190,21 Jan 2030 03:52:29.172,21 Jan 2030 05:18:27.382,5158.210
191,21 Jan 2030 06:24:57.375,21 Jan 2030 07:53:44.892,5327.517
192,21 Jan 2030 08:58:07.887,21 Jan 2030 10:20:13.827,4925.940
193,21 Jan 2030 11:26:01.489,21 Jan 2030 12:57:18.807,5477.317
194,21 Jan 2030 14:05:51.383,21 Jan 2030 15:30:00.209,5048.826
195,21 Jan 2030 16:34:15.279,21 Jan 2030 17:58:46.185,5070.906
196,21 Jan 2030 19:04:51.845,21 Jan 2030 20:34:56.103,5404.258
197,21 Jan 2030 21:39:36.888,21 Jan 2030 23:01:47.390,4930.502
198,22 Jan 2030 00:06:56.438,22 Jan 2030 01:36:28.082,5371.644
199,22 Jan 2030 02:45:53.295,22 Jan 2030 04:11:38.638,5145.343
200,22 Jan 2030 05:16:04.751,22 Jan 2030 06:39:26.467,5001.716
201,22 Jan 2030 07:45:00.366,22 Jan 2030 09:15:46.161,5445.795
202,22 Jan 2030 10:20:52.491,22 Jan 2030 11:43:31.032,4958.541
203,22 Jan 2030 12:48:12.816,22 Jan 2030 14:15:40.085,5247.269
204,22 Jan 2030 15:25:23.944,22 Jan 2030 16:53:07.612,5263.669
205,22 Jan 2030 17:57:53.010,22 Jan 2030 19:20:27.145,4954.135
206,22 Jan 2030 20:25:30.540,22 Jan 2030 21:56:12.981,5442.441
207,22 Jan 2030 23:01:50.541,23 Jan 2030 00:25:19.713,5009.172
208,23 Jan 2030 01:29:43.717,23 Jan 2030 02:55:14.907,5131.190
209,23 Jan 2030 04:04:34.353,23 Jan 2030 05:34:20.985,5386.631
210,23 Jan 2030 06:39:35.358,23 Jan 2030 08:01:44.781,4929.423
211,23 Jan 2030 09:06:23.898,23 Jan 2030 10:36:19.000,5395.103
212,23 Jan 2030 11:42:27.963,23 Jan 2030 13:07:08.770,5080.807
213,23 Jan 2030 14:11:23.074,23 Jan 2030 15:35:21.694,5038.620
214,23 Jan 2030 16:43:45.654,23 Jan 2030 18:15:11.828,5486.174
215,23 Jan 2030 19:21:06.713,23 Jan 2030 20:43:15.078,4928.365
216,23 Jan 2030 21:47:37.807,23 Jan 2030 23:16:12.758,5314.951
217,24 Jan 2030 00:22:44.326,24 Jan 2030 01:48:53.645,5169.319
218,24 Jan 2030 02:53:05.621,24 Jan 2030 04:15:59.827,4974.206
219,24 Jan 2030 05:23:18.809,24 Jan 2030 06:55:33.393,5534.584
220,24 Jan 2030 08:02:21.381,24 Jan 2030 09:24:53.549,4952.168
221,24 Jan 2030 10:29:07.773,24 Jan 2030 11:56:07.098,5219.325
222,24 Jan 2030 13:02:43.909,24 Jan 2030 14:30:29.671,5265.762
223,24 Jan 2030 15:34:46.607,24 Jan 2030 16:57:03.997,4937.390
224,24 Jan 2030 18:03:24.220,24 Jan 2030 19:35:21.981,5517.760
225,24 Jan 2030 20:43:13.126,24 Jan 2030 22:06:35.689,5002.563
226,24 Jan 2030 23:10:48.866,25 Jan 2030 00:36:14.054,5125.188
227,25 Jan 2030 01:42:36.609,25 Jan 2030 03:11:52.012,5355.403
228,25 Jan 2030 04:16:21.527,25 Jan 2030 05:38:27.803,4926.277
229,25 Jan 2030 06:44:01.431,25 Jan 2030 08:14:42.249,5440.818
230,25 Jan 2030 09:23:35.949,25 Jan 2030 10:48:16.875,5080.926
231,25 Jan 2030 11:52:36.285,25 Jan 2030 13:16:40.688,5044.403
232,25 Jan 2030 14:22:35.508,25 Jan 2030 15:52:55.949,5420.441
233,25 Jan 2030 16:57:45.948,25 Jan 2030 18:20:05.187,4939.240
234,25 Jan 2030 19:25:04.545,25 Jan 2030 20:53:50.680,5326.135
235,25 Jan 2030 22:03:26.519,25 Jan 2030 23:29:52.133,5185.615
236,26 Jan 2030 00:34:25.420,26 Jan 2030 01:57:28.575,4983.155
237,26 Jan 2030 03:02:51.651,26 Jan 2030 04:33:37.837,5446.187
238,26 Jan 2030 05:38:55.538,26 Jan 2030 07:01:50.766,4975.228
239,26 Jan 2030 08:06:26.463,26 Jan 2030 09:33:09.786,5203.323
240,26 Jan 2030 10:42:48.739,26 Jan 2030 12:11:15.857,5307.118
241,26 Jan 2030 13:16:11.695,26 Jan 2030 14:38:35.631,4943.936
242,26 Jan 2030 15:43:30.349,26 Jan 2030 17:13:56.994,5426.645
243,26 Jan 2030 18:19:46.452,26 Jan 2030 19:43:39.681,5033.229
244,26 Jan 2030 20:48:00.604,26 Jan 2030 22:12:56.034,5095.430
245,26 Jan 2030 23:21:57.644,27 Jan 2030 00:52:21.637,5423.993
246,27 Jan 2030 01:57:50.316,27 Jan 2030 03:19:58.039,4927.722
247,27 Jan 2030 04:24:31.406,27 Jan 2030 05:53:57.966,5366.559
248,27 Jan 2030 07:00:16.396,27 Jan 2030 08:25:27.350,5110.954
249,27 Jan 2030 09:29:41.230,27 Jan 2030 10:53:14.556,5013.326
250,27 Jan 2030 12:01:15.525,27 Jan 2030 13:33:02.500,5506.975
251,27 Jan 2030 14:39:16.023,27 Jan 2030 16:01:31.432,4935.409
252,27 Jan 2030 17:05:51.376,27 Jan 2030 18:33:51.122,5279.746
253,27 Jan 2030 19:40:26.432,27 Jan 2030 21:07:09.210,5202.778
254,27 Jan 2030 22:11:23.320,27 Jan 2030 23:34:02.589,4959.268
255,28 Jan 2030 00:41:00.072,28 Jan 2030 02:13:12.436,5532.363
256,28 Jan 2030 03:20:22.946,28 Jan 2030 04:43:11.342,4968.396
257,28 Jan 2030 05:47:25.547,28 Jan 2030 07:13:49.472,5183.925
258,28 Jan 2030 08:20:22.841,28 Jan 2030 09:48:40.558,5297.717
259,28 Jan 2030 10:53:02.251,28 Jan 2030 11:00:00.000,417.749

