dtn_data/3_3/5to7.csv

"Access","Start Time (UTCG)","Stop Time (UTCG)","Duration (sec)"
1,1 Jan 2030 04:00:00.000,1 Jan 2030 05:10:26.738,4226.738
2,1 Jan 2030 06:14:31.235,1 Jan 2030 07:37:12.413,4961.178
3,1 Jan 2030 08:44:21.204,1 Jan 2030 10:17:02.571,5561.366
4,1 Jan 2030 11:23:50.466,1 Jan 2030 12:46:17.175,4946.709
5,1 Jan 2030 13:50:22.870,1 Jan 2030 15:17:18.870,5216.000
6,1 Jan 2030 16:23:58.054,1 Jan 2030 17:52:03.930,5285.876
7,1 Jan 2030 18:56:14.399,1 Jan 2030 20:18:20.357,4925.958
8,1 Jan 2030 21:24:29.149,1 Jan 2030 22:56:45.944,5536.795
9,2 Jan 2030 00:04:40.896,2 Jan 2030 01:28:02.243,5001.347
10,2 Jan 2030 02:32:07.366,2 Jan 2030 03:57:24.255,5116.889
11,2 Jan 2030 05:03:45.748,2 Jan 2030 06:33:26.429,5380.681
12,2 Jan 2030 07:37:50.781,2 Jan 2030 08:59:47.902,4917.121
13,2 Jan 2030 10:05:10.248,2 Jan 2030 11:35:59.478,5449.231
14,2 Jan 2030 12:45:00.498,2 Jan 2030 14:09:46.020,5085.522
15,2 Jan 2030 15:13:57.909,2 Jan 2030 16:37:51.437,5033.528
16,2 Jan 2030 17:43:41.631,2 Jan 2030 19:14:29.176,5447.545
17,2 Jan 2030 20:19:15.783,2 Jan 2030 21:41:28.792,4933.009
18,2 Jan 2030 22:46:17.578,3 Jan 2030 00:15:01.985,5324.407
19,3 Jan 2030 01:24:45.681,3 Jan 2030 02:51:23.391,5197.710
20,3 Jan 2030 03:55:49.795,3 Jan 2030 05:18:41.293,4971.499
21,3 Jan 2030 06:23:57.248,3 Jan 2030 07:55:08.198,5470.951
22,3 Jan 2030 09:00:24.831,3 Jan 2030 10:23:17.548,4972.717
23,3 Jan 2030 11:27:43.523,3 Jan 2030 12:54:18.145,5194.622
24,3 Jan 2030 14:04:01.099,3 Jan 2030 15:32:48.532,5327.434
25,3 Jan 2030 16:37:38.360,3 Jan 2030 17:59:51.091,4932.731
26,3 Jan 2030 19:04:37.452,3 Jan 2030 20:35:22.818,5445.366
27,3 Jan 2030 21:41:13.808,3 Jan 2030 23:05:09.256,5035.448
28,4 Jan 2030 00:09:21.284,4 Jan 2030 01:34:04.625,5083.341
29,4 Jan 2030 02:43:03.998,4 Jan 2030 04:13:54.657,5450.659
30,4 Jan 2030 05:19:18.688,4 Jan 2030 06:41:16.568,4917.880
31,4 Jan 2030 07:45:41.242,4 Jan 2030 09:15:18.313,5377.072
32,4 Jan 2030 10:21:40.239,4 Jan 2030 11:46:59.253,5119.015
33,4 Jan 2030 12:51:05.058,4 Jan 2030 14:14:25.501,5000.444
34,4 Jan 2030 15:22:18.943,4 Jan 2030 16:54:34.272,5535.329
35,4 Jan 2030 18:00:45.321,4 Jan 2030 19:22:53.085,4927.764
36,4 Jan 2030 20:27:04.473,4 Jan 2030 21:55:06.476,5282.003
37,4 Jan 2030 23:01:45.380,5 Jan 2030 00:28:42.860,5217.480
38,5 Jan 2030 01:32:49.750,5 Jan 2030 02:55:16.865,4947.115
39,5 Jan 2030 04:02:04.058,5 Jan 2030 05:34:40.795,5556.737
40,5 Jan 2030 06:41:52.070,5 Jan 2030 08:04:36.005,4963.935
41,5 Jan 2030 09:08:42.006,5 Jan 2030 10:35:01.609,5179.603
42,5 Jan 2030 11:41:36.394,5 Jan 2030 13:10:15.176,5318.782
43,5 Jan 2030 14:14:30.678,5 Jan 2030 15:36:32.134,4921.456
44,5 Jan 2030 16:42:24.191,5 Jan 2030 18:14:12.912,5508.722
45,5 Jan 2030 19:22:32.249,5 Jan 2030 20:46:20.708,5028.459
46,5 Jan 2030 21:50:28.730,5 Jan 2030 23:15:14.584,5085.854
47,6 Jan 2030 00:21:26.121,6 Jan 2030 01:51:31.093,5404.972
48,6 Jan 2030 02:56:03.274,6 Jan 2030 04:18:04.648,4921.374
49,6 Jan 2030 05:23:15.097,6 Jan 2030 06:53:20.728,5405.631
50,6 Jan 2030 08:02:40.064,6 Jan 2030 09:28:02.377,5122.313
51,6 Jan 2030 10:32:19.818,6 Jan 2030 11:55:49.964,5010.147
52,6 Jan 2030 13:01:28.500,6 Jan 2030 14:32:25.836,5457.336
53,6 Jan 2030 15:37:22.964,6 Jan 2030 16:59:48.480,4945.516
54,6 Jan 2030 18:04:29.406,6 Jan 2030 19:32:26.322,5276.916
55,6 Jan 2030 20:42:14.203,6 Jan 2030 22:09:35.701,5241.498
56,6 Jan 2030 23:14:10.622,7 Jan 2030 00:36:47.130,4956.508
57,7 Jan 2030 01:41:52.801,7 Jan 2030 03:12:56.360,5463.559
58,7 Jan 2030 04:18:25.300,7 Jan 2030 05:41:38.385,4993.085
59,7 Jan 2030 06:45:59.781,7 Jan 2030 08:11:52.570,5152.790
60,7 Jan 2030 09:21:23.517,7 Jan 2030 10:50:54.562,5371.045
61,7 Jan 2030 11:55:56.437,7 Jan 2030 13:18:02.688,4926.251
62,7 Jan 2030 14:22:41.590,7 Jan 2030 15:53:03.843,5422.253
63,7 Jan 2030 16:59:06.623,7 Jan 2030 18:23:29.591,5062.967
64,7 Jan 2030 19:27:39.820,7 Jan 2030 20:51:51.484,5051.664
65,7 Jan 2030 22:00:28.811,7 Jan 2030 23:31:51.922,5483.111
66,8 Jan 2030 00:37:32.203,8 Jan 2030 01:59:32.224,4920.021
67,8 Jan 2030 03:03:52.533,8 Jan 2030 04:32:55.925,5343.392
68,8 Jan 2030 05:39:25.550,8 Jan 2030 07:05:17.475,5151.925
69,8 Jan 2030 08:09:24.027,8 Jan 2030 09:32:23.708,4979.680
70,8 Jan 2030 10:39:53.589,8 Jan 2030 12:12:20.396,5546.806
71,8 Jan 2030 13:18:52.243,8 Jan 2030 14:41:11.104,4938.861
72,8 Jan 2030 15:45:21.034,8 Jan 2030 17:12:45.750,5244.716
73,8 Jan 2030 18:19:25.229,8 Jan 2030 19:46:57.318,5252.089
74,8 Jan 2030 20:51:07.513,8 Jan 2030 22:13:24.033,4936.520
75,8 Jan 2030 23:19:51.276,9 Jan 2030 00:52:14.733,5543.456
76,9 Jan 2030 01:59:50.179,9 Jan 2030 03:22:54.735,4984.556
77,9 Jan 2030 04:27:01.959,9 Jan 2030 05:52:46.811,5144.852
78,9 Jan 2030 06:59:14.943,9 Jan 2030 08:28:24.157,5349.214
79,9 Jan 2030 09:32:45.662,9 Jan 2030 10:54:45.759,4920.096
80,9 Jan 2030 12:00:22.847,9 Jan 2030 13:31:37.089,5474.242
81,9 Jan 2030 14:40:19.475,9 Jan 2030 16:04:38.474,5058.999
82,9 Jan 2030 17:08:50.312,9 Jan 2030 18:33:07.754,5057.442
83,9 Jan 2030 19:39:08.404,9 Jan 2030 21:09:32.961,5424.558
84,9 Jan 2030 22:14:13.940,9 Jan 2030 23:36:22.500,4928.560
85,10 Jan 2030 00:41:22.544,10 Jan 2030 02:10:42.179,5359.634
86,10 Jan 2030 03:20:15.477,10 Jan 2030 04:46:17.376,5161.899
87,10 Jan 2030 05:50:41.373,10 Jan 2030 07:13:51.096,4989.723
88,10 Jan 2030 08:19:18.266,10 Jan 2030 09:50:19.425,5461.159
89,10 Jan 2030 10:55:27.817,10 Jan 2030 12:18:08.610,4960.793
90,10 Jan 2030 13:22:42.893,10 Jan 2030 14:49:53.720,5230.828
91,10 Jan 2030 15:59:39.867,10 Jan 2030 17:27:45.900,5286.033
92,10 Jan 2030 18:32:30.519,10 Jan 2030 19:54:55.044,4944.525
93,10 Jan 2030 20:59:51.371,10 Jan 2030 22:30:41.741,5450.370
94,10 Jan 2030 23:36:23.064,11 Jan 2030 00:59:59.078,5016.014
95,11 Jan 2030 02:04:16.904,11 Jan 2030 03:29:31.312,5114.408
96,11 Jan 2030 04:38:45.881,11 Jan 2030 06:08:57.634,5411.754
97,11 Jan 2030 07:14:12.967,11 Jan 2030 08:36:15.764,4922.798
98,11 Jan 2030 09:40:48.298,11 Jan 2030 11:10:43.204,5394.906
99,11 Jan 2030 12:16:56.671,11 Jan 2030 13:41:49.217,5092.546
100,11 Jan 2030 14:45:58.552,11 Jan 2030 16:09:42.471,5023.919
101,11 Jan 2030 17:17:56.523,11 Jan 2030 18:49:45.362,5508.838
102,11 Jan 2030 19:55:43.484,11 Jan 2030 21:17:48.748,4925.264
103,11 Jan 2030 22:22:05.737,11 Jan 2030 23:50:33.628,5307.891
104,12 Jan 2030 00:57:08.625,12 Jan 2030 02:23:34.415,5185.790
105,12 Jan 2030 03:27:42.608,12 Jan 2030 04:50:25.228,4962.620
106,12 Jan 2030 05:57:32.559,12 Jan 2030 07:30:02.140,5549.581
107,12 Jan 2030 08:36:56.171,12 Jan 2030 09:59:29.404,4953.233
108,12 Jan 2030 11:03:38.835,12 Jan 2030 12:30:26.772,5207.937
109,12 Jan 2030 13:37:04.140,12 Jan 2030 15:05:09.894,5285.755
110,12 Jan 2030 16:09:24.324,12 Jan 2030 17:31:33.600,4929.276
111,12 Jan 2030 18:37:42.649,12 Jan 2030 20:09:44.743,5522.094
112,12 Jan 2030 21:17:44.540,12 Jan 2030 22:41:13.162,5008.621
113,12 Jan 2030 23:45:22.511,13 Jan 2030 01:10:34.683,5112.172
114,13 Jan 2030 02:16:54.330,13 Jan 2030 03:46:30.674,5376.344
115,13 Jan 2030 04:50:59.161,13 Jan 2030 06:13:00.957,4921.796
116,13 Jan 2030 07:18:24.763,13 Jan 2030 08:48:59.432,5434.669
117,13 Jan 2030 09:58:02.476,13 Jan 2030 11:22:55.312,5092.837
118,13 Jan 2030 12:27:11.905,13 Jan 2030 13:51:03.726,5031.821
119,13 Jan 2030 14:56:53.034,13 Jan 2030 16:27:31.904,5438.870
120,13 Jan 2030 17:32:22.595,13 Jan 2030 18:54:41.209,4938.615
121,13 Jan 2030 19:59:32.247,13 Jan 2030 21:28:04.956,5312.709
122,13 Jan 2030 22:37:47.031,14 Jan 2030 00:04:30.759,5203.728
123,14 Jan 2030 01:09:02.374,14 Jan 2030 02:31:54.663,4972.290
124,14 Jan 2030 03:37:11.044,14 Jan 2030 05:08:09.979,5458.935
125,14 Jan 2030 06:13:30.191,14 Jan 2030 07:36:28.983,4978.792
126,14 Jan 2030 08:40:57.745,14 Jan 2030 10:07:24.808,5187.063
127,14 Jan 2030 11:17:03.537,14 Jan 2030 12:45:53.694,5330.157
128,14 Jan 2030 13:50:49.274,14 Jan 2030 15:13:04.828,4935.554
129,14 Jan 2030 16:17:52.834,14 Jan 2030 17:48:24.654,5431.820
130,14 Jan 2030 18:54:18.060,14 Jan 2030 20:18:19.427,5041.367
131,14 Jan 2030 21:22:34.648,14 Jan 2030 22:47:14.409,5079.761
132,14 Jan 2030 23:56:09.298,15 Jan 2030 01:26:57.432,5448.134
133,15 Jan 2030 02:32:27.714,15 Jan 2030 03:54:30.094,4922.381
134,15 Jan 2030 04:58:57.353,15 Jan 2030 06:28:21.485,5364.132
135,15 Jan 2030 07:34:44.070,15 Jan 2030 09:00:07.927,5123.857
136,15 Jan 2030 10:04:17.267,15 Jan 2030 11:27:37.328,5000.061
137,15 Jan 2030 12:35:27.812,15 Jan 2030 14:07:34.730,5526.918
138,15 Jan 2030 15:13:52.267,15 Jan 2030 16:36:05.927,4933.660
139,15 Jan 2030 17:40:20.613,15 Jan 2030 19:08:12.048,5271.435
140,15 Jan 2030 20:14:49.852,15 Jan 2030 21:41:49.860,5220.009
141,15 Jan 2030 22:46:00.595,16 Jan 2030 00:08:29.737,4949.142
142,16 Jan 2030 01:15:15.910,16 Jan 2030 02:47:39.540,5543.630
143,16 Jan 2030 03:54:56.833,16 Jan 2030 05:17:47.782,4970.950
144,16 Jan 2030 06:21:57.644,16 Jan 2030 07:48:09.950,5172.306
145,16 Jan 2030 08:54:42.717,16 Jan 2030 10:23:20.384,5317.668
146,16 Jan 2030 11:27:40.001,16 Jan 2030 12:49:45.266,4925.264
147,16 Jan 2030 13:55:37.894,16 Jan 2030 15:27:11.393,5493.499
148,16 Jan 2030 16:35:34.944,16 Jan 2030 17:59:31.068,5036.124
149,16 Jan 2030 19:03:43.461,16 Jan 2030 20:28:25.339,5081.878
150,16 Jan 2030 21:34:35.143,16 Jan 2030 23:04:34.549,5399.405
151,17 Jan 2030 00:09:10.982,17 Jan 2030 01:31:17.470,4926.488
152,17 Jan 2030 02:36:29.579,17 Jan 2030 04:06:21.037,5391.458
153,17 Jan 2030 05:15:41.264,17 Jan 2030 06:41:10.990,5129.726
154,17 Jan 2030 07:45:33.317,17 Jan 2030 09:09:02.401,5009.084
155,17 Jan 2030 10:14:40.323,17 Jan 2030 11:45:27.838,5447.515
156,17 Jan 2030 12:50:29.063,17 Jan 2030 14:13:00.555,4951.492
157,17 Jan 2030 15:17:43.878,17 Jan 2030 16:45:30.054,5266.177
158,17 Jan 2030 17:55:15.218,17 Jan 2030 19:22:42.255,5247.037
159,17 Jan 2030 20:27:22.610,17 Jan 2030 21:50:00.477,4957.867
160,17 Jan 2030 22:55:06.851,18 Jan 2030 00:25:57.626,5450.775
161,18 Jan 2030 01:31:29.958,18 Jan 2030 02:54:49.383,4999.425
162,18 Jan 2030 03:59:13.688,18 Jan 2030 05:24:59.980,5146.291
163,18 Jan 2030 06:34:26.234,18 Jan 2030 08:03:58.782,5372.548
164,18 Jan 2030 09:09:06.664,18 Jan 2030 10:31:16.266,4929.602
165,18 Jan 2030 11:35:57.021,18 Jan 2030 13:06:05.518,5408.497
166,18 Jan 2030 14:12:10.279,18 Jan 2030 15:36:39.233,5068.955
167,18 Jan 2030 16:40:52.779,18 Jan 2030 18:05:01.760,5048.980
168,18 Jan 2030 19:13:34.809,18 Jan 2030 20:44:53.659,5478.850
169,18 Jan 2030 21:50:40.431,18 Jan 2030 23:12:45.472,4925.041
170,19 Jan 2030 00:17:08.521,19 Jan 2030 01:45:59.318,5330.797
171,19 Jan 2030 02:52:29.027,19 Jan 2030 04:18:25.530,5156.503
172,19 Jan 2030 05:22:35.757,19 Jan 2030 06:45:35.757,4980.000
173,19 Jan 2030 07:53:03.144,19 Jan 2030 09:25:19.848,5536.704
174,19 Jan 2030 10:31:58.282,19 Jan 2030 11:54:23.569,4945.288
175,19 Jan 2030 12:58:36.925,19 Jan 2030 14:25:51.766,5234.842
176,19 Jan 2030 15:32:29.698,19 Jan 2030 17:00:03.597,5253.899
177,19 Jan 2030 18:04:17.796,19 Jan 2030 19:26:36.914,4939.118
178,19 Jan 2030 20:33:03.550,19 Jan 2030 22:05:12.776,5529.226
179,19 Jan 2030 23:12:53.963,20 Jan 2030 00:36:06.025,4992.061
180,20 Jan 2030 01:40:17.242,20 Jan 2030 03:05:55.595,5138.353
181,20 Jan 2030 04:12:21.590,20 Jan 2030 05:41:28.582,5346.993
182,20 Jan 2030 06:45:54.349,20 Jan 2030 08:07:58.744,4924.395
183,20 Jan 2030 09:13:36.683,20 Jan 2030 10:44:35.482,5458.799
184,20 Jan 2030 11:53:21.230,20 Jan 2030 13:17:48.236,5067.006
185,20 Jan 2030 14:22:04.600,20 Jan 2030 15:46:18.803,5054.203
186,20 Jan 2030 16:52:17.896,20 Jan 2030 18:22:35.625,5417.730
187,20 Jan 2030 19:27:20.947,20 Jan 2030 20:49:35.051,4934.104
188,20 Jan 2030 21:54:36.942,20 Jan 2030 23:23:43.041,5346.099
189,21 Jan 2030 00:33:15.998,21 Jan 2030 01:59:25.263,5169.265
190,21 Jan 2030 03:03:54.342,21 Jan 2030 04:27:03.642,4989.300
191,21 Jan 2030 05:32:30.484,21 Jan 2030 07:03:20.743,5450.259
192,21 Jan 2030 08:08:33.183,21 Jan 2030 09:31:20.320,4967.137
193,21 Jan 2030 10:35:57.131,21 Jan 2030 12:02:58.278,5221.148
194,21 Jan 2030 13:12:40.740,21 Jan 2030 14:40:51.587,5290.846
195,21 Jan 2030 15:45:41.882,21 Jan 2030 17:08:08.337,4946.454
196,21 Jan 2030 18:13:05.622,21 Jan 2030 19:43:42.592,5436.969
197,21 Jan 2030 20:49:27.024,21 Jan 2030 22:13:09.610,5022.586
198,21 Jan 2030 23:17:30.466,22 Jan 2030 00:42:39.425,5108.960
199,22 Jan 2030 01:51:49.058,22 Jan 2030 03:22:00.854,5411.796
200,22 Jan 2030 04:27:22.457,22 Jan 2030 05:49:29.148,4926.690
201,22 Jan 2030 06:54:03.726,22 Jan 2030 08:23:44.860,5381.134
202,22 Jan 2030 09:29:59.783,22 Jan 2030 10:54:58.297,5098.513
203,22 Jan 2030 11:59:11.077,22 Jan 2030 13:22:53.173,5022.096
204,22 Jan 2030 14:31:03.273,22 Jan 2030 16:02:46.033,5502.760
205,22 Jan 2030 17:08:50.863,22 Jan 2030 18:31:01.690,4930.826
206,22 Jan 2030 19:35:21.564,22 Jan 2030 21:03:37.348,5295.784
207,22 Jan 2030 22:10:11.844,22 Jan 2030 23:36:41.808,5189.964
208,23 Jan 2030 00:40:53.821,23 Jan 2030 02:03:37.441,4963.621
209,23 Jan 2030 03:10:42.748,23 Jan 2030 04:43:00.643,5537.895
210,23 Jan 2030 05:50:01.255,23 Jan 2030 07:12:41.459,4960.204
211,23 Jan 2030 08:16:54.440,23 Jan 2030 09:43:33.274,5198.834
212,23 Jan 2030 10:50:08.722,23 Jan 2030 12:18:15.428,5286.706
213,23 Jan 2030 13:22:34.016,23 Jan 2030 14:44:46.448,4932.431
214,23 Jan 2030 15:50:55.262,23 Jan 2030 17:22:42.252,5506.990
215,23 Jan 2030 18:30:47.323,23 Jan 2030 19:54:23.934,5016.611
216,23 Jan 2030 20:58:37.415,23 Jan 2030 22:23:43.894,5106.478
217,23 Jan 2030 23:30:01.381,24 Jan 2030 00:59:34.296,5372.915
218,24 Jan 2030 02:04:07.177,24 Jan 2030 03:26:13.762,4926.585
219,24 Jan 2030 04:31:38.663,24 Jan 2030 06:01:57.975,5419.312
220,24 Jan 2030 07:11:03.327,24 Jan 2030 08:36:04.430,5101.103
221,24 Jan 2030 09:40:25.725,24 Jan 2030 11:04:15.031,5029.306
222,24 Jan 2030 12:10:03.001,24 Jan 2030 13:40:33.786,5430.786
223,24 Jan 2030 14:45:28.872,24 Jan 2030 16:07:53.465,4944.593
224,24 Jan 2030 17:12:46.513,24 Jan 2030 18:41:06.530,5300.017
225,24 Jan 2030 19:50:47.015,24 Jan 2030 21:17:37.869,5210.854
226,24 Jan 2030 22:22:14.778,24 Jan 2030 23:45:07.282,4972.504
227,25 Jan 2030 00:50:23.617,25 Jan 2030 02:21:10.677,5447.060
228,25 Jan 2030 03:26:34.810,25 Jan 2030 04:49:40.293,4985.483
229,25 Jan 2030 05:54:11.706,25 Jan 2030 07:20:30.213,5178.507
230,25 Jan 2030 08:30:04.477,25 Jan 2030 09:58:58.458,5333.981
231,25 Jan 2030 11:03:59.970,25 Jan 2030 12:26:18.033,4938.063
232,25 Jan 2030 13:31:07.235,25 Jan 2030 15:01:25.211,5417.975
233,25 Jan 2030 16:07:21.341,25 Jan 2030 17:31:29.464,5048.122
234,25 Jan 2030 18:35:47.835,25 Jan 2030 20:00:23.164,5075.330
235,25 Jan 2030 21:09:13.099,25 Jan 2030 22:39:59.605,5446.506
236,25 Jan 2030 23:45:36.423,26 Jan 2030 01:07:43.260,4926.837
237,26 Jan 2030 02:12:12.738,26 Jan 2030 03:41:23.253,5350.515
238,26 Jan 2030 04:47:46.697,26 Jan 2030 06:13:16.414,5129.717
239,26 Jan 2030 07:17:29.326,26 Jan 2030 08:40:48.385,4999.059
240,26 Jan 2030 09:48:35.334,26 Jan 2030 11:20:34.331,5518.997
241,26 Jan 2030 12:26:58.745,26 Jan 2030 13:49:18.541,4939.795
242,26 Jan 2030 14:53:36.243,26 Jan 2030 16:21:16.192,5259.948
243,26 Jan 2030 17:27:52.920,26 Jan 2030 18:54:56.557,5223.636
244,26 Jan 2030 19:59:11.260,26 Jan 2030 21:21:42.061,4950.801
245,26 Jan 2030 22:28:26.663,27 Jan 2030 00:00:37.178,5530.514
246,27 Jan 2030 01:08:00.918,27 Jan 2030 02:30:59.395,4978.477
247,27 Jan 2030 03:35:12.936,27 Jan 2030 05:01:16.961,5164.026
248,27 Jan 2030 06:07:47.527,27 Jan 2030 07:36:25.139,5317.611
249,27 Jan 2030 08:40:49.064,27 Jan 2030 10:02:58.035,4928.972
250,27 Jan 2030 11:08:50.769,27 Jan 2030 12:40:08.583,5477.814
251,27 Jan 2030 13:48:36.715,27 Jan 2030 15:12:41.284,5044.569
252,27 Jan 2030 16:16:57.954,27 Jan 2030 17:41:34.949,5076.995
253,27 Jan 2030 18:47:42.660,27 Jan 2030 20:17:37.354,5394.693
254,27 Jan 2030 21:22:18.298,27 Jan 2030 22:44:30.064,4931.766
255,27 Jan 2030 23:49:43.486,28 Jan 2030 01:19:19.965,5376.479
256,28 Jan 2030 02:28:41.282,28 Jan 2030 03:54:19.427,5138.146
257,28 Jan 2030 04:58:46.633,28 Jan 2030 06:22:13.924,5007.291
258,28 Jan 2030 07:27:50.760,28 Jan 2030 08:58:28.965,5438.205
259,28 Jan 2030 10:03:34.585,28 Jan 2030 11:00:00.000,3385.415

