dtn_data/3_3/5to8.csv

"Access","Start Time (UTCG)","Stop Time (UTCG)","Duration (sec)"
1,1 Jan 2030 04:57:35.412,1 Jan 2030 06:22:19.256,5083.844
2,1 Jan 2030 07:14:21.903,1 Jan 2030 08:43:24.613,5342.710
3,1 Jan 2030 09:33:56.702,1 Jan 2030 11:01:17.296,5240.594
4,1 Jan 2030 11:56:40.600,1 Jan 2030 13:17:58.186,4877.586
5,1 Jan 2030 14:39:18.141,1 Jan 2030 16:38:06.671,7128.530
6,1 Jan 2030 17:40:48.248,1 Jan 2030 19:04:34.469,5026.221
7,1 Jan 2030 19:57:23.226,1 Jan 2030 21:26:07.468,5324.242
8,1 Jan 2030 22:16:28.395,1 Jan 2030 23:44:27.093,5278.698
9,2 Jan 2030 00:38:42.611,2 Jan 2030 02:00:56.755,4934.144
10,2 Jan 2030 03:09:41.708,2 Jan 2030 05:17:51.680,7689.972
11,2 Jan 2030 06:23:57.942,2 Jan 2030 07:46:45.120,4967.178
12,2 Jan 2030 08:40:28.264,2 Jan 2030 10:08:45.788,5297.524
13,2 Jan 2030 10:59:04.396,2 Jan 2030 12:27:33.989,5309.593
14,2 Jan 2030 13:20:50.833,2 Jan 2030 14:44:03.768,4992.935
15,2 Jan 2030 15:48:21.239,2 Jan 2030 17:54:37.969,7576.731
16,2 Jan 2030 19:07:01.484,2 Jan 2030 20:28:50.280,4908.797
17,2 Jan 2030 21:23:36.506,2 Jan 2030 22:51:19.693,5263.187
18,2 Jan 2030 23:41:44.858,3 Jan 2030 01:10:37.436,5332.578
19,3 Jan 2030 02:03:04.025,3 Jan 2030 03:27:15.301,5051.276
20,3 Jan 2030 04:28:43.174,3 Jan 2030 05:52:29.135,5025.961
21,3 Jan 2030 07:49:53.710,3 Jan 2030 09:10:48.349,4854.639
22,3 Jan 2030 10:06:47.338,3 Jan 2030 11:33:49.358,5222.021
23,3 Jan 2030 12:24:29.877,3 Jan 2030 13:53:36.978,5347.101
24,3 Jan 2030 14:45:21.490,3 Jan 2030 16:10:28.955,5107.465
25,3 Jan 2030 17:09:50.215,3 Jan 2030 18:29:59.340,4809.125
26,3 Jan 2030 20:32:24.173,3 Jan 2030 21:52:36.639,4812.466
27,3 Jan 2030 22:50:00.010,4 Jan 2030 00:16:14.936,5174.926
28,4 Jan 2030 01:07:19.457,4 Jan 2030 02:36:32.267,5352.810
29,4 Jan 2030 03:27:42.908,4 Jan 2030 04:53:43.084,5160.177
30,4 Jan 2030 05:51:22.117,4 Jan 2030 07:11:26.559,4804.443
31,4 Jan 2030 09:14:05.758,4 Jan 2030 10:34:10.547,4804.789
32,4 Jan 2030 11:33:13.604,4 Jan 2030 12:58:36.517,5122.913
33,4 Jan 2030 13:50:13.506,4 Jan 2030 15:19:23.064,5349.558
34,4 Jan 2030 16:10:08.189,4 Jan 2030 17:36:56.477,5208.289
35,4 Jan 2030 18:33:09.442,4 Jan 2030 19:53:51.662,4842.220
36,4 Jan 2030 21:52:57.547,4 Jan 2030 23:15:21.642,4944.095
37,5 Jan 2030 00:16:26.970,5 Jan 2030 01:40:54.056,5067.086
38,5 Jan 2030 02:33:11.813,5 Jan 2030 04:02:09.239,5337.426
39,5 Jan 2030 04:52:37.402,5 Jan 2030 06:20:08.190,5250.788
40,5 Jan 2030 07:15:07.124,5 Jan 2030 08:36:41.399,4894.276
41,5 Jan 2030 09:50:56.601,5 Jan 2030 11:55:52.387,7495.786
42,5 Jan 2030 12:59:38.547,5 Jan 2030 14:23:07.278,5008.731
43,5 Jan 2030 15:16:14.073,5 Jan 2030 16:44:50.766,5316.693
44,5 Jan 2030 17:35:10.696,5 Jan 2030 19:03:17.448,5286.752
45,5 Jan 2030 19:57:12.204,5 Jan 2030 21:19:43.736,4951.531
46,5 Jan 2030 22:26:33.975,6 Jan 2030 00:34:56.194,7702.219
47,6 Jan 2030 01:42:46.089,6 Jan 2030 03:05:15.578,4949.488
48,6 Jan 2030 03:59:19.858,6 Jan 2030 05:27:27.706,5287.848
49,6 Jan 2030 06:17:48.246,6 Jan 2030 07:46:23.624,5315.378
50,6 Jan 2030 08:39:22.938,6 Jan 2030 10:02:52.917,5009.979
51,6 Jan 2030 11:06:02.404,6 Jan 2030 13:08:36.449,7354.045
52,6 Jan 2030 14:25:46.000,6 Jan 2030 15:47:17.829,4891.829
53,6 Jan 2030 16:42:28.636,6 Jan 2030 18:10:00.196,5251.560
54,6 Jan 2030 19:00:30.193,6 Jan 2030 20:29:26.185,5335.993
55,6 Jan 2030 21:21:38.286,6 Jan 2030 22:46:05.681,5067.396
56,6 Jan 2030 23:46:44.571,7 Jan 2030 01:08:12.959,4888.388
57,7 Jan 2030 03:08:31.783,7 Jan 2030 04:29:12.119,4840.336
58,7 Jan 2030 05:25:39.754,7 Jan 2030 06:52:28.391,5208.637
59,7 Jan 2030 07:43:16.614,7 Jan 2030 09:12:24.707,5348.093
60,7 Jan 2030 10:03:57.682,7 Jan 2030 11:29:19.955,5122.273
61,7 Jan 2030 12:28:02.644,7 Jan 2030 13:48:00.424,4797.781
62,7 Jan 2030 15:50:49.300,7 Jan 2030 17:10:55.219,4805.919
63,7 Jan 2030 18:08:52.417,7 Jan 2030 19:34:52.425,5160.009
64,7 Jan 2030 20:26:07.499,7 Jan 2030 21:55:18.861,5351.362
65,7 Jan 2030 22:46:20.883,8 Jan 2030 00:12:34.274,5173.392
66,8 Jan 2030 01:09:41.500,8 Jan 2030 02:29:54.940,4813.439
67,8 Jan 2030 04:31:56.535,8 Jan 2030 05:52:21.481,4824.947
68,8 Jan 2030 06:52:05.635,8 Jan 2030 08:17:12.349,5106.714
69,8 Jan 2030 09:09:02.730,8 Jan 2030 10:38:08.433,5345.703
70,8 Jan 2030 11:28:47.854,8 Jan 2030 12:55:47.529,5219.675
71,8 Jan 2030 13:51:33.646,8 Jan 2030 15:12:30.936,4857.290
72,8 Jan 2030 17:06:43.697,8 Jan 2030 18:33:20.175,5196.478
73,8 Jan 2030 19:35:18.142,8 Jan 2030 20:59:28.052,5049.910
74,8 Jan 2030 21:52:02.075,8 Jan 2030 23:20:53.308,5331.233
75,9 Jan 2030 00:11:18.692,9 Jan 2030 01:38:58.840,5260.148
76,9 Jan 2030 02:33:34.909,9 Jan 2030 03:55:26.173,4911.265
77,9 Jan 2030 05:06:08.910,9 Jan 2030 07:13:27.380,7638.470
78,9 Jan 2030 08:18:28.177,9 Jan 2030 09:41:39.168,4990.991
79,9 Jan 2030 10:35:05.204,9 Jan 2030 12:03:33.485,5308.281
80,9 Jan 2030 12:53:53.564,9 Jan 2030 14:22:07.494,5293.930
81,9 Jan 2030 15:15:42.824,9 Jan 2030 16:38:31.587,4968.763
82,9 Jan 2030 17:43:50.088,9 Jan 2030 19:51:29.597,7659.509
83,9 Jan 2030 21:01:33.114,9 Jan 2030 22:23:44.934,4931.820
84,9 Jan 2030 23:18:11.664,10 Jan 2030 00:46:09.032,5277.368
85,10 Jan 2030 01:36:32.630,10 Jan 2030 03:05:12.883,5320.253
86,10 Jan 2030 03:57:55.912,10 Jan 2030 05:21:42.538,5026.626
87,10 Jan 2030 06:23:52.591,10 Jan 2030 07:54:28.722,5436.131
88,10 Jan 2030 09:44:28.590,10 Jan 2030 11:05:43.999,4875.409
89,10 Jan 2030 12:01:20.892,10 Jan 2030 13:28:40.079,5239.188
90,10 Jan 2030 14:19:16.027,10 Jan 2030 15:48:14.507,5338.479
91,10 Jan 2030 16:40:13.308,10 Jan 2030 18:04:56.285,5082.977
92,10 Jan 2030 19:04:50.698,10 Jan 2030 20:25:21.235,4830.536
93,10 Jan 2030 22:27:06.246,10 Jan 2030 23:47:34.071,4827.825
94,11 Jan 2030 00:44:32.195,11 Jan 2030 02:11:06.773,5194.578
95,11 Jan 2030 03:02:03.816,11 Jan 2030 04:31:11.959,5348.142
96,11 Jan 2030 05:22:34.560,11 Jan 2030 06:48:11.003,5136.443
97,11 Jan 2030 07:46:17.998,11 Jan 2030 09:06:14.700,4796.702
98,11 Jan 2030 11:09:06.214,11 Jan 2030 12:29:11.245,4805.031
99,11 Jan 2030 13:27:44.719,11 Jan 2030 14:53:29.222,5144.503
100,11 Jan 2030 15:44:55.963,11 Jan 2030 17:14:04.942,5348.979
101,11 Jan 2030 18:04:59.493,11 Jan 2030 19:31:25.377,5185.885
102,11 Jan 2030 20:28:02.889,11 Jan 2030 21:48:28.138,4825.248
103,11 Jan 2030 23:49:17.453,12 Jan 2030 01:10:28.521,4871.067
104,12 Jan 2030 02:10:57.405,12 Jan 2030 03:35:47.429,5090.025
105,12 Jan 2030 04:27:52.323,12 Jan 2030 05:56:53.255,5340.932
106,12 Jan 2030 06:47:28.117,12 Jan 2030 08:14:38.391,5230.274
107,12 Jan 2030 09:09:59.328,12 Jan 2030 10:31:12.530,4873.202
108,12 Jan 2030 11:50:34.997,12 Jan 2030 13:51:11.947,7236.951
109,12 Jan 2030 14:54:08.828,12 Jan 2030 16:18:01.200,5032.372
110,12 Jan 2030 17:10:52.653,12 Jan 2030 18:39:36.814,5324.161
111,12 Jan 2030 19:30:00.551,12 Jan 2030 20:57:49.221,5268.671
112,12 Jan 2030 21:52:03.853,12 Jan 2030 23:14:12.202,4928.349
113,13 Jan 2030 00:22:30.906,13 Jan 2030 02:30:47.635,7696.729
114,13 Jan 2030 03:37:16.987,13 Jan 2030 05:00:10.067,4973.080
115,13 Jan 2030 05:53:56.590,13 Jan 2030 07:22:15.618,5299.028
116,13 Jan 2030 08:12:36.966,13 Jan 2030 09:40:57.195,5300.229
117,13 Jan 2030 10:34:14.391,13 Jan 2030 11:57:20.132,4985.741
118,13 Jan 2030 13:01:22.123,13 Jan 2030 15:07:06.456,7544.333
119,13 Jan 2030 16:20:18.772,13 Jan 2030 17:42:13.089,4914.317
120,13 Jan 2030 18:37:03.646,13 Jan 2030 20:04:49.747,5266.101
121,13 Jan 2030 20:55:17.523,13 Jan 2030 22:24:01.736,5324.212
122,13 Jan 2030 23:16:29.695,14 Jan 2030 00:40:32.530,5042.835
123,14 Jan 2030 01:41:49.749,14 Jan 2030 03:05:02.806,4993.057
124,14 Jan 2030 05:03:08.782,14 Jan 2030 06:24:08.641,4859.859
125,14 Jan 2030 07:20:13.231,14 Jan 2030 08:47:19.327,5226.096
126,14 Jan 2030 09:38:02.340,14 Jan 2030 11:07:02.371,5340.031
127,14 Jan 2030 11:58:49.047,14 Jan 2030 13:23:47.037,5097.990
128,14 Jan 2030 14:23:00.741,14 Jan 2030 15:43:05.340,4804.598
129,14 Jan 2030 17:45:35.987,14 Jan 2030 19:05:53.977,4817.989
130,14 Jan 2030 20:03:24.604,14 Jan 2030 21:29:44.488,5179.884
131,14 Jan 2030 22:20:51.458,14 Jan 2030 23:49:58.715,5347.257
132,15 Jan 2030 00:41:12.091,15 Jan 2030 02:07:02.040,5149.949
133,15 Jan 2030 03:04:35.872,15 Jan 2030 04:24:37.754,4801.881
134,15 Jan 2030 06:27:11.098,15 Jan 2030 07:47:24.324,4813.225
135,15 Jan 2030 08:46:36.863,15 Jan 2030 10:12:05.298,5128.435
136,15 Jan 2030 11:03:44.818,15 Jan 2030 12:32:50.492,5345.674
137,15 Jan 2030 13:23:38.711,15 Jan 2030 14:50:16.348,5197.637
138,15 Jan 2030 15:46:26.051,15 Jan 2030 17:07:04.970,4838.919
139,15 Jan 2030 19:05:34.954,15 Jan 2030 20:28:30.883,4975.930
140,15 Jan 2030 21:29:48.832,15 Jan 2030 22:54:21.715,5072.883
141,15 Jan 2030 23:46:42.264,16 Jan 2030 01:15:37.521,5335.258
142,16 Jan 2030 02:06:08.954,16 Jan 2030 03:33:29.020,5240.066
143,16 Jan 2030 04:28:26.344,16 Jan 2030 05:49:55.963,4889.620
144,16 Jan 2030 07:03:21.703,16 Jan 2030 09:08:55.071,7533.369
145,16 Jan 2030 10:12:58.916,16 Jan 2030 11:36:33.454,5014.538
146,16 Jan 2030 12:29:43.514,16 Jan 2030 13:58:19.736,5316.222
147,16 Jan 2030 14:48:42.958,16 Jan 2030 16:16:39.297,5276.339
148,16 Jan 2030 17:10:33.856,16 Jan 2030 18:32:59.235,4945.379
149,16 Jan 2030 19:39:28.753,16 Jan 2030 21:47:46.345,7697.592
150,16 Jan 2030 22:56:04.800,17 Jan 2030 00:18:39.906,4955.106
151,17 Jan 2030 01:12:48.182,17 Jan 2030 02:40:57.146,5288.964
152,17 Jan 2030 03:31:20.890,17 Jan 2030 04:59:46.528,5305.638
153,17 Jan 2030 05:52:46.837,17 Jan 2030 07:16:09.235,5002.398
154,17 Jan 2030 08:19:05.536,17 Jan 2030 10:20:22.019,7276.483
155,17 Jan 2030 11:39:02.757,17 Jan 2030 13:00:39.937,4897.180
156,17 Jan 2030 13:55:55.756,17 Jan 2030 15:23:29.832,5254.076
157,17 Jan 2030 16:14:02.904,17 Jan 2030 17:42:50.165,5327.261
158,17 Jan 2030 18:35:04.237,17 Jan 2030 19:59:22.790,5058.553
159,17 Jan 2030 20:59:52.461,17 Jan 2030 22:21:08.128,4875.667
160,18 Jan 2030 00:21:45.966,18 Jan 2030 01:42:31.595,4845.630
161,18 Jan 2030 02:39:05.604,18 Jan 2030 04:05:57.919,5212.316
162,18 Jan 2030 04:56:49.105,18 Jan 2030 06:25:49.759,5340.654
163,18 Jan 2030 07:17:25.465,18 Jan 2030 08:42:37.862,5112.397
164,18 Jan 2030 09:41:14.077,18 Jan 2030 11:01:09.052,4794.975
165,18 Jan 2030 13:03:59.384,18 Jan 2030 14:24:11.555,4812.171
166,18 Jan 2030 15:22:16.936,18 Jan 2030 16:48:21.506,5164.570
167,18 Jan 2030 17:39:39.508,18 Jan 2030 19:08:44.955,5345.447
168,18 Jan 2030 19:59:50.246,18 Jan 2030 21:25:53.008,5162.762
169,18 Jan 2030 22:22:55.938,18 Jan 2030 23:43:07.003,4811.064
170,19 Jan 2030 01:44:56.965,19 Jan 2030 03:05:33.958,4836.993
171,19 Jan 2030 04:05:28.773,19 Jan 2030 05:30:40.629,5111.855
172,19 Jan 2030 06:22:34.043,19 Jan 2030 07:51:35.489,5341.446
173,19 Jan 2030 08:42:18.513,19 Jan 2030 10:09:07.138,5208.625
174,19 Jan 2030 11:04:50.793,19 Jan 2030 12:25:44.604,4853.810
175,19 Jan 2030 14:17:52.576,19 Jan 2030 15:46:27.529,5314.953
176,19 Jan 2030 16:48:39.819,19 Jan 2030 18:12:55.166,5055.347
177,19 Jan 2030 19:05:32.515,19 Jan 2030 20:34:21.213,5328.697
178,19 Jan 2030 21:24:50.346,19 Jan 2030 22:52:19.390,5249.044
179,19 Jan 2030 23:46:54.569,20 Jan 2030 01:08:40.866,4906.297
180,20 Jan 2030 02:18:51.318,20 Jan 2030 04:26:26.745,7655.427
181,20 Jan 2030 05:31:48.266,20 Jan 2030 06:55:04.745,4996.479
182,20 Jan 2030 07:48:34.626,20 Jan 2030 09:17:02.061,5307.435
183,20 Jan 2030 10:07:25.887,20 Jan 2030 11:35:29.034,5283.148
184,20 Jan 2030 12:29:04.833,20 Jan 2030 13:51:47.082,4962.249
185,20 Jan 2030 14:56:48.586,20 Jan 2030 17:04:10.463,7641.877
186,20 Jan 2030 18:14:51.403,20 Jan 2030 19:37:08.597,4937.194
187,20 Jan 2030 20:31:39.952,20 Jan 2030 21:59:38.053,5278.101
188,20 Jan 2030 22:50:05.306,21 Jan 2030 00:18:35.458,5310.152
189,21 Jan 2030 01:11:20.103,21 Jan 2030 02:34:58.769,5018.666
190,21 Jan 2030 03:36:57.488,21 Jan 2030 05:04:58.027,5280.540
191,21 Jan 2030 06:57:44.680,21 Jan 2030 08:19:05.350,4880.670
192,21 Jan 2030 09:14:47.955,21 Jan 2030 10:42:09.274,5241.319
193,21 Jan 2030 11:32:48.749,21 Jan 2030 13:01:38.138,5329.390
194,21 Jan 2030 13:53:39.495,21 Jan 2030 15:18:13.237,5073.742
195,21 Jan 2030 16:17:59.695,21 Jan 2030 17:38:24.225,4824.530
196,21 Jan 2030 19:40:19.290,21 Jan 2030 21:00:52.656,4833.366
197,21 Jan 2030 21:57:57.957,21 Jan 2030 23:24:35.833,5197.876
198,22 Jan 2030 00:15:36.294,22 Jan 2030 01:44:36.651,5340.357
199,22 Jan 2030 02:36:02.528,22 Jan 2030 04:01:28.700,5126.172
200,22 Jan 2030 04:59:30.218,22 Jan 2030 06:19:24.964,4794.745
201,22 Jan 2030 08:22:13.888,22 Jan 2030 09:42:26.477,4812.589
202,22 Jan 2030 10:41:09.124,22 Jan 2030 12:06:57.803,5148.679
203,22 Jan 2030 12:58:27.949,22 Jan 2030 14:27:30.657,5342.709
204,22 Jan 2030 15:18:28.996,22 Jan 2030 16:44:43.863,5174.866
205,22 Jan 2030 17:41:17.927,22 Jan 2030 19:01:40.801,4822.873
206,22 Jan 2030 21:02:08.888,22 Jan 2030 22:23:39.511,4890.622
207,22 Jan 2030 23:24:20.374,23 Jan 2030 00:49:15.170,5094.797
208,23 Jan 2030 01:41:23.604,23 Jan 2030 03:10:19.927,5336.322
209,23 Jan 2030 04:00:58.874,23 Jan 2030 05:27:57.719,5218.845
210,23 Jan 2030 06:23:16.951,23 Jan 2030 07:44:26.433,4869.481
211,23 Jan 2030 09:02:17.730,23 Jan 2030 11:04:17.026,7319.296
212,23 Jan 2030 12:07:30.262,23 Jan 2030 13:31:27.737,5037.475
213,23 Jan 2030 14:24:23.047,23 Jan 2030 15:53:04.316,5321.268
214,23 Jan 2030 16:43:32.263,23 Jan 2030 18:11:09.464,5257.201
215,23 Jan 2030 19:05:23.898,23 Jan 2030 20:27:26.944,4923.046
216,23 Jan 2030 21:35:21.619,23 Jan 2030 23:43:42.515,7700.896
217,24 Jan 2030 00:50:36.724,24 Jan 2030 02:13:35.010,4978.287
218,24 Jan 2030 03:07:25.948,24 Jan 2030 04:35:43.772,5297.825
219,24 Jan 2030 05:26:09.315,24 Jan 2030 06:54:18.408,5289.094
220,24 Jan 2030 07:47:36.711,24 Jan 2030 09:10:35.577,4978.866
221,24 Jan 2030 10:14:23.291,24 Jan 2030 12:19:29.186,7505.895
222,24 Jan 2030 13:33:36.534,24 Jan 2030 14:55:36.045,4919.511
223,24 Jan 2030 15:50:31.855,24 Jan 2030 17:18:18.326,5266.470
224,24 Jan 2030 18:08:50.194,24 Jan 2030 19:37:23.962,5313.768
225,24 Jan 2030 20:29:54.139,24 Jan 2030 21:53:48.630,5034.491
226,24 Jan 2030 22:54:56.076,25 Jan 2030 00:17:43.444,4967.368
227,25 Jan 2030 02:16:24.051,25 Jan 2030 03:37:29.181,4865.130
228,25 Jan 2030 04:33:40.192,25 Jan 2030 06:00:48.055,5227.862
229,25 Jan 2030 06:51:35.028,25 Jan 2030 08:20:25.637,5330.609
230,25 Jan 2030 09:12:15.430,25 Jan 2030 10:37:03.796,5088.366
231,25 Jan 2030 11:36:10.673,25 Jan 2030 12:56:12.238,4801.564
232,25 Jan 2030 14:58:47.553,25 Jan 2030 16:19:11.586,4824.034
233,25 Jan 2030 17:16:50.247,25 Jan 2030 18:43:13.049,5182.802
234,25 Jan 2030 19:34:23.889,25 Jan 2030 21:03:23.023,5339.134
235,25 Jan 2030 21:54:40.206,25 Jan 2030 23:20:19.498,5139.291
236,26 Jan 2030 00:17:48.779,26 Jan 2030 01:37:49.092,4800.313
237,26 Jan 2030 03:40:15.220,26 Jan 2030 05:00:38.320,4823.100
238,26 Jan 2030 06:00:01.104,26 Jan 2030 07:25:33.353,5132.249
239,26 Jan 2030 08:17:16.746,26 Jan 2030 09:46:15.813,5339.067
240,26 Jan 2030 10:37:08.314,26 Jan 2030 12:03:34.555,5186.241
241,26 Jan 2030 12:59:41.618,26 Jan 2030 14:20:18.039,4836.421
242,26 Jan 2030 16:18:04.413,26 Jan 2030 17:41:40.150,5015.737
243,26 Jan 2030 18:43:11.581,26 Jan 2030 20:07:48.891,5077.310
244,26 Jan 2030 21:00:13.472,26 Jan 2030 22:29:03.787,5330.315
245,26 Jan 2030 23:19:39.769,27 Jan 2030 00:46:48.051,5228.282
246,27 Jan 2030 01:41:44.386,27 Jan 2030 03:03:09.998,4885.612
247,27 Jan 2030 04:15:51.922,27 Jan 2030 06:21:57.327,7565.405
248,27 Jan 2030 07:26:20.043,27 Jan 2030 08:49:59.375,5019.331
249,27 Jan 2030 09:43:13.825,27 Jan 2030 11:11:46.814,5312.989
250,27 Jan 2030 12:02:14.686,27 Jan 2030 13:29:59.213,5264.527
251,27 Jan 2030 14:23:54.240,27 Jan 2030 15:46:13.973,4939.733
252,27 Jan 2030 16:52:24.426,27 Jan 2030 19:00:34.704,7690.278
253,27 Jan 2030 20:09:24.100,27 Jan 2030 21:32:04.176,4960.076
254,27 Jan 2030 22:26:17.445,27 Jan 2030 23:54:24.856,5287.412
255,28 Jan 2030 00:44:53.221,28 Jan 2030 02:13:07.387,5294.166
256,28 Jan 2030 03:06:09.425,28 Jan 2030 04:29:24.578,4995.153
257,28 Jan 2030 05:32:08.729,28 Jan 2030 07:31:44.600,7175.871
258,28 Jan 2030 08:52:19.879,28 Jan 2030 10:14:02.137,4902.257

