dtn_data/3_3/6to9.csv

"Access","Start Time (UTCG)","Stop Time (UTCG)","Duration (sec)"
1,1 Jan 2030 04:00:00.000,1 Jan 2030 04:21:20.509,1280.509
2,1 Jan 2030 04:38:35.915,1 Jan 2030 17:23:55.474,45919.559
3,1 Jan 2030 17:54:43.737,2 Jan 2030 06:28:14.979,45211.243
4,2 Jan 2030 07:09:04.065,2 Jan 2030 19:33:29.820,44665.755
5,2 Jan 2030 20:22:04.010,3 Jan 2030 08:39:34.729,44250.719
6,3 Jan 2030 09:33:25.601,3 Jan 2030 21:46:40.712,43995.111
7,3 Jan 2030 22:42:33.239,4 Jan 2030 10:55:20.142,43966.903
8,4 Jan 2030 11:48:27.466,5 Jan 2030 00:07:08.810,44321.344
9,5 Jan 2030 00:49:00.675,15 Jan 2030 19:27:24.982,931104.307
10,15 Jan 2030 19:40:21.957,16 Jan 2030 08:16:14.086,45352.130
11,16 Jan 2030 09:01:29.478,16 Jan 2030 21:17:26.177,44156.699
12,16 Jan 2030 22:12:30.575,17 Jan 2030 10:23:01.937,43831.362
13,17 Jan 2030 11:20:56.251,17 Jan 2030 23:31:25.952,43829.701
14,18 Jan 2030 00:27:59.825,18 Jan 2030 12:41:52.044,44032.219
15,18 Jan 2030 13:34:08.863,19 Jan 2030 01:53:52.264,44383.401
16,19 Jan 2030 02:39:34.393,19 Jan 2030 15:07:10.134,44855.740
17,19 Jan 2030 15:44:16.497,20 Jan 2030 04:21:46.920,45450.423
18,20 Jan 2030 04:47:57.471,20 Jan 2030 17:39:39.200,46301.729
19,20 Jan 2030 17:48:24.179,28 Jan 2030 09:28:34.321,661210.143
20,28 Jan 2030 09:45:00.984,28 Jan 2030 11:00:00.000,4499.016

