dtn_data/2_1_1/0to7.csv

"Access","Start Time (UTCG)","Stop Time (UTCG)","Duration (sec)"
1,3 Jan 2030 19:55:57.291,3 Jan 2030 22:42:08.045,9970.754
2,4 Jan 2030 08:31:27.056,4 Jan 2030 12:12:38.546,13271.491
3,4 Jan 2030 21:19:57.732,5 Jan 2030 01:30:53.601,15055.869
4,5 Jan 2030 10:14:10.558,5 Jan 2030 14:43:46.046,16175.489
5,5 Jan 2030 23:11:33.033,6 Jan 2030 03:53:37.873,16924.840
6,6 Jan 2030 12:10:55.128,6 Jan 2030 17:01:34.169,17439.041
7,7 Jan 2030 01:11:40.086,7 Jan 2030 06:08:09.075,17788.989
8,7 Jan 2030 14:13:27.248,7 Jan 2030 19:13:41.651,18014.403
9,8 Jan 2030 03:16:04.872,8 Jan 2030 08:18:22.475,18137.603
10,8 Jan 2030 16:19:26.838,8 Jan 2030 21:22:16.624,18169.786
11,9 Jan 2030 05:23:31.168,9 Jan 2030 10:25:24.948,18113.780
12,9 Jan 2030 18:28:19.594,9 Jan 2030 23:27:44.290,17964.696
13,10 Jan 2030 07:33:57.988,10 Jan 2030 12:29:06.791,17708.803
14,10 Jan 2030 20:40:37.876,11 Jan 2030 01:29:17.952,17320.076
15,11 Jan 2030 09:48:39.854,11 Jan 2030 14:27:52.424,16752.569
16,11 Jan 2030 22:58:41.284,12 Jan 2030 03:24:04.769,15923.485
17,12 Jan 2030 12:11:55.549,12 Jan 2030 16:16:26.778,14671.229
18,13 Jan 2030 01:31:12.131,13 Jan 2030 05:01:38.881,12626.750
19,13 Jan 2030 15:06:00.357,13 Jan 2030 17:29:02.111,8581.753
20,17 Jan 2030 04:43:01.929,17 Jan 2030 06:19:46.150,5804.221
21,17 Jan 2030 16:55:07.301,17 Jan 2030 20:08:33.406,11606.105
22,18 Jan 2030 05:36:17.901,18 Jan 2030 09:31:16.384,14098.483
23,18 Jan 2030 18:26:46.619,18 Jan 2030 22:46:05.809,15559.191
24,19 Jan 2030 07:21:54.356,19 Jan 2030 11:57:01.532,16507.176
25,19 Jan 2030 20:19:47.406,20 Jan 2030 01:05:38.649,17151.243
26,20 Jan 2030 09:19:29.572,20 Jan 2030 14:12:43.539,17593.966
27,20 Jan 2030 22:20:30.153,21 Jan 2030 03:18:41.271,17891.117
28,21 Jan 2030 11:22:31.610,21 Jan 2030 16:23:45.919,18074.309
29,22 Jan 2030 00:25:24.153,22 Jan 2030 05:28:05.037,18160.884
30,22 Jan 2030 13:29:03.166,22 Jan 2030 18:31:41.672,18158.506
31,23 Jan 2030 02:33:28.172,23 Jan 2030 07:34:35.117,18066.945
32,23 Jan 2030 15:38:42.748,23 Jan 2030 20:36:40.773,17878.025
33,24 Jan 2030 04:44:55.400,24 Jan 2030 09:37:49.077,17573.677
34,24 Jan 2030 17:52:21.852,24 Jan 2030 22:37:42.964,17121.112
35,25 Jan 2030 07:01:30.056,25 Jan 2030 11:35:52.389,16462.332
36,25 Jan 2030 20:13:11.842,26 Jan 2030 00:31:21.756,15489.915
37,26 Jan 2030 09:29:14.072,26 Jan 2030 13:22:16.447,13982.375
38,26 Jan 2030 22:54:10.198,27 Jan 2030 02:03:44.788,11374.590
39,27 Jan 2030 12:50:47.803,27 Jan 2030 14:12:08.445,4880.641

