dtn_data/2_1_1/1to7.csv

"Access","Start Time (UTCG)","Stop Time (UTCG)","Duration (sec)"
1,1 Jan 2030 04:49:16.467,1 Jan 2030 09:51:37.047,18140.580
2,1 Jan 2030 17:52:05.851,1 Jan 2030 22:54:23.517,18137.666
3,2 Jan 2030 06:54:51.518,2 Jan 2030 11:57:06.911,18135.393
4,2 Jan 2030 19:57:34.378,3 Jan 2030 00:59:48.231,18133.852
5,3 Jan 2030 09:00:15.400,3 Jan 2030 14:02:28.507,18133.107
6,3 Jan 2030 22:02:55.593,4 Jan 2030 03:05:08.781,18133.188
7,4 Jan 2030 11:05:35.991,4 Jan 2030 16:07:50.083,18134.092
8,5 Jan 2030 00:08:17.637,5 Jan 2030 05:10:33.421,18135.784
9,5 Jan 2030 13:11:01.562,5 Jan 2030 18:13:19.758,18138.196
10,6 Jan 2030 02:13:48.770,6 Jan 2030 07:16:10.004,18141.234
11,6 Jan 2030 15:16:40.216,6 Jan 2030 20:19:04.995,18144.779
12,7 Jan 2030 04:19:36.792,7 Jan 2030 09:22:05.490,18148.699
13,7 Jan 2030 17:22:39.307,7 Jan 2030 22:25:12.158,18152.851
14,8 Jan 2030 06:25:48.478,8 Jan 2030 11:28:25.569,18157.091
15,8 Jan 2030 19:29:04.910,9 Jan 2030 00:31:46.191,18161.281
16,9 Jan 2030 08:32:29.093,9 Jan 2030 13:35:14.389,18165.296
17,9 Jan 2030 21:36:01.386,10 Jan 2030 02:38:50.414,18169.028
18,10 Jan 2030 10:39:42.018,10 Jan 2030 15:42:34.409,18172.391
19,10 Jan 2030 23:43:31.079,11 Jan 2030 04:46:26.403,18175.324
20,11 Jan 2030 12:47:28.521,11 Jan 2030 17:50:26.315,18177.795
21,12 Jan 2030 01:51:34.156,12 Jan 2030 06:54:33.950,18179.794
22,12 Jan 2030 14:55:47.662,12 Jan 2030 19:58:49.000,18181.339
23,13 Jan 2030 04:00:08.587,13 Jan 2030 09:03:11.053,18182.466
24,13 Jan 2030 17:04:36.355,13 Jan 2030 22:07:39.587,18183.231
25,14 Jan 2030 06:09:10.279,14 Jan 2030 11:12:13.980,18183.701
26,14 Jan 2030 19:13:49.570,15 Jan 2030 00:16:53.515,18183.946
27,15 Jan 2030 08:18:33.351,15 Jan 2030 13:21:37.389,18184.038
28,15 Jan 2030 21:23:20.677,16 Jan 2030 02:26:24.720,18184.043
29,16 Jan 2030 10:28:10.549,16 Jan 2030 15:31:14.564,18184.015
30,16 Jan 2030 23:33:01.931,17 Jan 2030 04:36:05.923,18183.991
31,17 Jan 2030 12:37:53.774,17 Jan 2030 17:40:57.767,18183.993
32,18 Jan 2030 01:42:45.031,18 Jan 2030 06:45:49.048,18184.018
33,18 Jan 2030 14:47:34.674,18 Jan 2030 19:50:38.720,18184.045
34,19 Jan 2030 03:52:21.717,19 Jan 2030 08:55:25.753,18184.036
35,19 Jan 2030 16:57:05.224,19 Jan 2030 22:00:09.161,18183.936
36,20 Jan 2030 06:01:44.329,20 Jan 2030 11:04:48.009,18183.679
37,20 Jan 2030 19:06:18.243,21 Jan 2030 00:09:21.438,18183.194
38,21 Jan 2030 08:10:46.266,21 Jan 2030 13:13:48.676,18182.410
39,21 Jan 2030 21:15:07.793,22 Jan 2030 02:18:09.054,18181.261
40,22 Jan 2030 10:19:22.320,22 Jan 2030 15:22:22.013,18179.694
41,22 Jan 2030 23:23:29.447,23 Jan 2030 04:26:27.119,18177.672
42,23 Jan 2030 12:27:28.882,23 Jan 2030 17:30:24.063,18175.181
43,24 Jan 2030 01:31:20.442,24 Jan 2030 06:34:12.672,18172.229
44,24 Jan 2030 14:35:04.054,24 Jan 2030 19:37:52.905,18168.851
45,25 Jan 2030 03:38:39.752,25 Jan 2030 08:41:24.860,18165.108
46,25 Jan 2030 16:42:07.682,25 Jan 2030 21:44:48.767,18161.084
47,26 Jan 2030 05:45:28.097,26 Jan 2030 10:48:04.985,18156.888
48,26 Jan 2030 18:48:41.357,26 Jan 2030 23:51:14.001,18152.644
49,27 Jan 2030 07:51:47.925,27 Jan 2030 12:54:16.413,18148.488
50,27 Jan 2030 20:54:48.365,28 Jan 2030 01:57:12.930,18144.565
51,28 Jan 2030 09:57:43.336,28 Jan 2030 15:00:04.351,18141.016
52,28 Jan 2030 23:00:33.587,29 Jan 2030 00:00:00.000,3566.413

