dtn_data/2_1_1/2to7.csv

"Access","Start Time (UTCG)","Stop Time (UTCG)","Duration (sec)"
1,1 Jan 2030 04:00:00.000,1 Jan 2030 08:34:56.184,16496.184
2,1 Jan 2030 17:06:55.588,1 Jan 2030 21:47:06.983,16811.395
3,2 Jan 2030 06:25:24.455,2 Jan 2030 11:01:10.408,16545.953
4,2 Jan 2030 19:45:04.745,3 Jan 2030 00:17:13.326,16328.581
5,3 Jan 2030 09:05:13.134,3 Jan 2030 13:35:09.075,16195.941
6,3 Jan 2030 22:24:57.271,4 Jan 2030 02:54:31.864,16174.593
7,4 Jan 2030 11:43:28.537,4 Jan 2030 16:14:37.648,16269.111
8,5 Jan 2030 01:00:13.959,5 Jan 2030 05:34:33.820,16459.862
9,5 Jan 2030 14:15:00.381,5 Jan 2030 18:53:32.612,16712.231
10,6 Jan 2030 03:27:50.621,6 Jan 2030 08:11:00.464,16989.843
11,6 Jan 2030 16:38:56.439,6 Jan 2030 21:26:39.867,17263.429
12,7 Jan 2030 05:48:32.574,7 Jan 2030 10:40:25.970,17513.396
13,7 Jan 2030 18:56:53.204,7 Jan 2030 23:52:21.680,17728.476
14,8 Jan 2030 08:04:10.390,8 Jan 2030 13:02:33.521,17903.131
15,8 Jan 2030 21:10:33.674,9 Jan 2030 02:11:08.867,18035.193
16,9 Jan 2030 10:16:10.176,9 Jan 2030 15:18:14.370,18124.193
17,9 Jan 2030 23:21:04.871,10 Jan 2030 04:23:55.150,18170.279
18,10 Jan 2030 12:25:20.837,10 Jan 2030 17:28:14.449,18173.613
19,11 Jan 2030 01:28:59.452,11 Jan 2030 06:31:13.510,18134.058
20,11 Jan 2030 14:32:00.490,11 Jan 2030 19:32:51.586,18051.096
21,12 Jan 2030 03:34:22.120,12 Jan 2030 08:33:06.052,17923.932
22,12 Jan 2030 16:36:00.817,12 Jan 2030 21:31:52.641,17751.824
23,13 Jan 2030 05:36:51.191,13 Jan 2030 10:29:05.921,17534.730
24,13 Jan 2030 18:36:45.810,13 Jan 2030 23:24:40.175,17274.365
25,14 Jan 2030 07:35:35.061,14 Jan 2030 12:18:30.941,16975.880
26,14 Jan 2030 20:33:07.313,15 Jan 2030 01:10:37.426,16650.113
27,15 Jan 2030 09:29:09.717,15 Jan 2030 14:01:05.801,16316.084
28,15 Jan 2030 22:23:30.267,16 Jan 2030 02:50:12.768,16002.501
29,16 Jan 2030 11:16:01.510,16 Jan 2030 15:38:27.763,15746.254
30,17 Jan 2030 00:06:45.810,17 Jan 2030 04:26:31.363,15585.553
31,17 Jan 2030 12:56:00.174,17 Jan 2030 17:15:08.620,15548.446
32,18 Jan 2030 01:44:17.289,18 Jan 2030 06:04:59.184,15641.895
33,18 Jan 2030 14:32:20.393,18 Jan 2030 18:56:29.122,15848.729
34,19 Jan 2030 03:20:53.710,19 Jan 2030 07:49:48.623,16134.914
35,19 Jan 2030 16:10:33.470,19 Jan 2030 20:44:55.062,16461.592
36,20 Jan 2030 05:01:43.446,20 Jan 2030 09:41:38.421,16794.976
37,20 Jan 2030 17:54:35.346,20 Jan 2030 22:39:45.975,17110.629
38,21 Jan 2030 06:49:11.853,21 Jan 2030 11:39:05.247,17393.394
39,21 Jan 2030 19:45:30.209,22 Jan 2030 00:39:25.441,17635.233
40,22 Jan 2030 08:43:25.165,22 Jan 2030 13:40:37.902,17832.736
41,22 Jan 2030 21:42:50.985,23 Jan 2030 02:42:36.115,17985.130
42,23 Jan 2030 10:43:42.671,23 Jan 2030 15:45:15.533,18092.862
43,23 Jan 2030 23:45:56.633,24 Jan 2030 04:48:33.400,18156.767
44,24 Jan 2030 12:49:31.050,24 Jan 2030 17:52:28.587,18177.537
45,25 Jan 2030 01:54:26.039,25 Jan 2030 06:57:01.575,18155.535
46,25 Jan 2030 15:00:43.722,25 Jan 2030 20:02:14.470,18090.747
47,26 Jan 2030 04:08:28.184,26 Jan 2030 09:08:11.170,17982.986
48,26 Jan 2030 17:17:45.264,26 Jan 2030 22:14:57.549,17832.285
49,27 Jan 2030 06:28:42.054,27 Jan 2030 11:22:41.767,17639.713
50,27 Jan 2030 19:41:25.777,28 Jan 2030 00:31:34.474,17408.697
51,28 Jan 2030 08:56:01.748,28 Jan 2030 13:41:48.742,17146.995
52,28 Jan 2030 22:12:29.986,29 Jan 2030 00:00:00.000,6450.014

