dtn_data/2_1_1/6to8.csv

"Access","Start Time (UTCG)","Stop Time (UTCG)","Duration (sec)"
1,1 Jan 2030 04:00:00.000,9 Jan 2030 07:44:49.870,704689.870
2,9 Jan 2030 08:38:47.436,9 Jan 2030 20:41:23.625,43356.189
3,9 Jan 2030 21:48:40.152,10 Jan 2030 09:44:51.862,42971.710
4,10 Jan 2030 10:51:41.143,10 Jan 2030 22:55:08.615,43407.472
5,10 Jan 2030 23:47:53.530,23 Jan 2030 17:53:00.989,1101907.459
6,23 Jan 2030 18:49:46.127,24 Jan 2030 06:50:20.172,43234.044
7,24 Jan 2030 07:58:41.301,24 Jan 2030 19:55:58.347,43037.047
8,24 Jan 2030 20:59:17.341,25 Jan 2030 09:13:43.149,44065.807
9,25 Jan 2030 09:47:42.500,29 Jan 2030 00:00:00.000,310337.500

