dtn_data/2_1_1/7to8.csv

"Access","Start Time (UTCG)","Stop Time (UTCG)","Duration (sec)"
1,1 Jan 2030 04:00:00.000,9 Jan 2030 01:21:18.536,681678.536
2,9 Jan 2030 01:59:07.573,9 Jan 2030 14:12:02.968,43975.395
3,9 Jan 2030 15:14:47.037,10 Jan 2030 03:12:22.592,43055.555
4,10 Jan 2030 04:20:55.643,10 Jan 2030 16:18:57.984,43082.340
5,10 Jan 2030 17:20:49.774,11 Jan 2030 05:34:57.021,44047.247
6,11 Jan 2030 06:11:18.775,23 Jan 2030 11:29:18.512,1055879.737
7,23 Jan 2030 12:10:22.634,24 Jan 2030 00:20:30.125,43807.491
8,24 Jan 2030 01:25:23.934,24 Jan 2030 13:22:08.374,43004.441
9,24 Jan 2030 14:30:00.467,25 Jan 2030 02:32:24.502,43344.035
10,25 Jan 2030 03:25:56.984,29 Jan 2030 00:00:00.000,333243.016

